id|name|asciiName|alternateNames|latitude|longitude|countryCode
798549|România|Romania|An Romain,An Rómáin,Errumania,Lomaniya,Lomenia,Lomēnia,Orileede Romaniya,Orílẹ́ède Romaniya,Republica Populara Romina,Republica Populară Romînă,Republica Socialista Romania,Republica Socialistă România,Roemeenje,Roemenie,Roemenië,Romainia,Romainiya,Romani,Romania,Romania - Romania,Romania nutome,Romanica,Romaniei,Romanija,Romaniya,Romanya,Romanìa,Romanía,Romanía - România,Romenia,Rominia,Romunija,Romàinia,Románia,România,Roménia,Romênia,Romînia,Roumaneye,Roumani,Roumania,Roumanie,Ru-ma-ni,Ru-ma-ni-a (Romania),Rumaaniya,Rumaen,Rumaenia,Rumaenien,Rumani,Rumania,Rumanian People's Republic,Rumanian People’s Republic,Rumanien,Rumanii,Rumanija,Rumanio,Rumaniya,Rumanujo,Rumanya,Rumanìa,Rumanía,Rumanïi,Rumeenia,Rumenia,Rumiinii,Ruminia,Ruminija,Rumunia,Rumunija,Rumuniya,Rumunjska,Rumunska,Rumunsko,Rumynia,Rumynija,Rumän,Rumänien,Rumænia,Rumænien,Rumānija,Rwmania,Rúmenía,Socialist Republic of Romania,Socialist Republic of Rumania,Woumani,i-Romania,lumania,luo ma ni ya,prathes romaneiy,romaneiy,romani'a,romanias,romanis,romaniya,romyaniya,rumania,rumaniya,rumeniya,rumineti,rwmany,rwmanya,rwmnyh,rwmʻnyʻ,rۇmynyyە,Ρουμανία,Романија,Руминия,Румунија,Румунія,Румъния,Румыния,Румынія,Ռումինիա,רומניה,רומעניע,رومانيا,رومانی,رومانیا,رۇمىنىيە,ڕۆمانیا,ܪܘܡܢܝܐ,रोमानिया,রুমানিয়া,রুমানিয়া,রোমানিয়া,રોમાનિયા,ରୋମାନିଆ,ருமேனியா,రోమానియా,ರೊಮ್ಯಾನಿಯಾ,റുമേനിയ,රුමේනියාව,ประเทศโรมาเนีย,โรมาเนีย,ລູເມເນຍ,རོ་མཱ་ནིཡ།,ရိုမေးနီးယား,რუმინეთი,ሮማንያ,ሮሜኒያ,ᎶᎹᏂᏯ,រូម៉ានី,ルーマニア,罗马尼亚,羅馬尼亞,루마니아|46.0|25.0|RO
686581|Alba|Alba|Alba,Judetul Alba,Judeţul Alba|46.06817|23.57245|RO
686579|Comuna Albac|Comuna Albac||46.45246|22.95027|RO
686441|Comuna Almaşu Mare|Comuna Almasu Mare||46.10877|23.12038|RO
686166|Comuna Arieşeni|Comuna Arieseni||46.47659|22.75535|RO
686012|Comuna Avram Iancu|Comuna Avram Iancu||46.38333|22.78333|RO
685013|Comuna Berghin|Comuna Berghin||46.07484|23.73768|RO
684673|Comuna Bistra|Comuna Bistra||46.37856|23.1015|RO
684563|Comuna Blândiana|Comuna Blandiana|Comuna Blandiana,Comuna Blindiana,Comuna Blîndiana|45.98146|23.38543|RO
683596|Comuna Bucerdea-Grânoasă|Comuna Bucerdea-Granoasa|Comuna Bucerdea-Girnoasa,Comuna Bucerdea-Grinoasa,Comuna Bucerdea-Grînoasă,Comuna Bucerdea-Gîrnoasa|46.20878|23.85614|RO
683571|Comuna Bucium|Comuna Bucium||46.26131|23.15742|RO
681897|Comuna Câlnic|Comuna Calnic||45.87305|23.64329|RO
682425|Comuna Cenade|Comuna Cenade||46.08045|24.01382|RO
682362|Comuna Cergău|Comuna Cergau||46.09314|23.94597|RO
682279|Comuna Ceru-Băcăinţi|Comuna Ceru-Bacainti||46.00117|23.26983|RO
682257|Comuna Cetatea de Baltă|Comuna Cetatea de Balta||46.21619|24.16716|RO
681465|Comuna Ciugud|Comuna Ciugud||46.06526|23.62794|RO
681367|Comuna Ciuruleasa|Comuna Ciuruleasa||46.24481|23.01644|RO
680372|Comuna Crăciunelu de Jos|Comuna Craciunelu de Jos||46.17285|23.83585|RO
680247|Comuna Cricău|Comuna Cricau||46.18689|23.55309|RO
679874|Comuna Cut|Comuna Cut||45.93972|23.66719|RO
679811|Comuna Daia Română|Comuna Daia Romana||46.00709|23.66816|RO
679049|Comuna Doştat|Comuna Dostat||45.96143|23.83313|RO
678446|Comuna Fărău|Comuna Farau||46.32999|24.04335|RO
677666|Comuna Galda de Jos|Comuna Galda de Jos||46.21776|23.56918|RO
677233|Comuna Gârbova|Comuna Garbova||45.85277|23.68693|RO
677200|Comuna Gârda de Sus|Comuna Garda de Sus||46.46719|22.81519|RO
676036|Comuna Hopârta|Comuna Hoparta||46.33134|23.9034|RO
8305907|Comuna Horea|Comuna Horea||46.50058|22.94915|RO
675701|Comuna Ighiu|Comuna Ighiu||46.14854|23.51232|RO
675580|Comuna Întregalde|Comuna Intregalde||46.24908|23.39213|RO
675250|Comuna Jidvei|Comuna Jidveiu||46.23083|24.11475|RO
674638|Comuna Livezile|Comuna Livezile|Comuna Cacova,Comuna Livezile|46.37559|23.58563|RO
674611|Comuna Lopadea Nouă|Comuna Lopadea Noua||46.27782|23.84975|RO
674382|Comuna Lunca Mureşului|Comuna Lunca Muresului||46.42943|23.93272|RO
674270|Comuna Lupşa|Comuna Lupsa||46.34891|23.20455|RO
673505|Comuna Meteş|Comuna Metes|Metesd,Mettischdorf|46.10543|23.41707|RO
673353|Comuna Mihalţ|Comuna Mihalt|Michelsdorf|46.17641|23.73841|RO
673159|Comuna Mirăslău|Comuna Miraslau|Miriszlo,Miriszló|46.3866|23.69329|RO
672956|Comuna Mogoş|Comuna Mogos||46.28356|23.31873|RO
672166|Comuna Noşlac|Comuna Noslac||46.413|23.97668|RO
672006|Comuna Ocoliş|Comuna Ocolis||46.49636|23.46581|RO
671922|Comuna Ohaba|Comuna Ohaba||46.08263|23.80106|RO
670927|Comuna Pianu|Comuna Pianu||45.87127|23.49549|RO
672472|Comuna Poiana Vadului|Comuna Poiana Vadului||46.40457|22.8708|RO
669933|Comuna Ponor|Comuna Ponor||46.32065|23.40376|RO
669805|Comuna Poşaga|Comuna Posaga||46.45354|23.36115|RO
669267|Comuna Rădeşti|Comuna Radesti||46.24931|23.74444|RO
668897|Comuna Râmeţ|Comuna Rameti|Comuna Rimet,Comuna Rimeti,Comuna Rîmeţ,Comuna Rîmeţi|46.31564|23.52602|RO
668899|Comuna Râmetea|Comuna Rimetea||46.43815|23.56579|RO
668638|Comuna Roşia Montană|Comuna Rosia Montana||46.30991|23.08697|RO
668642|Comuna Roşia de Secaş|Comuna Rosia de Secas||46.04807|23.85329|RO
668176|Comuna Sălciua|Comuna Salciua|Sundorf,Szolcsva|46.38261|23.41526|RO
668148|Comuna Sãliştea|Comuna Saliste|Cioara,Tschorren|45.91425|23.41294|RO
667072|Comuna Sâncel|Comuna Sancel|Schinern,Szancsal|46.21176|23.94791|RO
666906|Comuna Sântimbru|Comuna Santimbru|Marosszentimre,Sankt Emmerich|46.12974|23.66899|RO
667918|Comuna Săsciori|Comuna Sasciori|Sassenberg,Schweis|45.85629|23.56898|RO
667719|Comuna Scărişoara|Comuna Scarisoara|Aranyosfo,Aranyosfő|46.46072|22.88166|RO
667264|Comuna Şibot|Comuna Sibot||45.94093|23.32226|RO
666549|Comuna Sohodol|Comuna Sohodol|Aranyosszohodol|46.32748|22.99414|RO
666442|Comuna Şona|Comuna Sona||46.25089|24.00259|RO
666333|Comuna Şpring|Comuna Spring|Gespreng,Spring|45.96833|23.73449|RO
665980|Comuna Stremţ|Comuna Stremt|Diod,Diodvaralja,Diód,Diódváralja,Nussschloss,Nußschloss,Subalpestris|46.25606|23.5934|RO
665819|Comuna Şugag|Comuna Sugag|Schugag|45.7478|23.59957|RO
664195|Comuna Unirea|Comuna Unirea||46.41948|23.7626|RO
668325|Comuna Vadu Moţilor|Comuna Vadu Motilor||46.4091|22.95532|RO
663670|Comuna Valea Lungă|Comuna Valea Lunga||46.13355|24.0828|RO
662965|Comuna Vidra|Comuna Vidra||46.37067|22.92726|RO
662794|Comuna Vinţu de Jos|Comuna Vintu de Jos||46.02229|23.45647|RO
8299637|Municipiul Aiud|Municipiul Aiud||46.3044|23.69751|RO
8299636|Municipiul Alba Iulia|Municipiul Alba Iulia||46.06346|23.57494|RO
8299638|Municipiul Blaj|Municipiul Blaj||46.15084|23.91041|RO
8299639|Municipiul Sebeş|Municipiul Sebes||45.94237|23.57681|RO
685833|Oraş Baia de Arieş|Oras Baia de Aries||46.37933|23.29903|RO
681870|Oraş Câmpeni|Oras Campeni||46.38493|23.04553|RO
679993|Oraş Cugir|Oras Cugir||45.81371|23.4074|RO
8299640|Oraş Ocna Mureş|Oras Ocna Mures||46.38475|23.8407|RO
665316|Oraş Teiuş|Oras Teius||46.20959|23.70812|RO
662160|Oraş Zlatna|Oras Zlatna|Ampellum,Schlatten,Zalatna|46.13753|23.20215|RO
686711|Oraş abrud|Oras abrud||46.27409|23.06129|RO
686253|Arad|Arad|Arad,Judetul Arad,Judeţul Arad,Județul Arad|46.33333|21.75|RO
686453|Comuna Almaş|Comuna Almas||46.2848|22.23173|RO
686276|Comuna Apateu|Comuna Apateu||46.62598|21.8253|RO
686225|Comuna Archiş|Comuna Archis||46.48333|22.09663|RO
684772|Comuna Bârsa|Comuna Barsa||46.3841|22.04459|RO
684723|Comuna Bârzava|Comuna Barzava||46.0991|22.06096|RO
685285|Comuna Bata|Comuna Bata||45.99641|22.07805|RO
685127|Comuna Beliu|Comuna Beliu||46.52965|21.99566|RO
684821|Comuna Birchiş|Comuna Birchis||45.96987|22.16845|RO
684480|Comuna Bocsig|Comuna Bocsig||46.41893|21.98424|RO
683767|Comuna Brazii|Comuna Brazii|Comuna Brazii,Comuna Saturau,Comuna Saturău|46.22177|22.32613|RO
683158|Comuna Buteni|Comuna Buteni||46.33119|22.11472|RO
682733|Comuna Cărand|Comuna Carand||46.45551|22.05755|RO
682349|Comuna Cermei|Comuna Cermei||46.55433|21.87084|RO
682010|Comuna Chisindia|Comuna Chisindia||46.26509|22.08572|RO
682008|Oraş Chişineu-Criş|Comuna Chisineu Cris||46.52178|21.51295|RO
8305938|Comuna Conop|Comuna Conop||46.10401|21.88047|RO
680431|Comuna Covăsinţ|Comuna Covasint||46.20571|21.60944|RO
680330|Comuna Craiva|Comuna Craiova||46.59969|21.97908|RO
679900|Oraş Curtici|Comuna Curtici||46.34358|21.31051|RO
679441|Comuna Dezna|Comuna Dezna||46.40997|22.22726|RO
679416|Comuna Dieci|Comuna Dieci||46.32071|22.22373|RO
679076|Comuna Dorobanți|Comuna Dorobanti||46.35022|21.24441|RO
678144|Comuna Fântânele|Comuna Fantanele||46.12441|21.38111|RO
678347|Comuna Felnac|Comuna Felnac||46.12223|21.16704|RO
8306308|Comuna Frumuşeni|Comuna Frumuseni||46.1018|21.45836|RO
677332|Comuna Ghioroc|Comuna Ghioroc||46.15322|21.59651|RO
676790|Comuna Grăniceri|Comuna Graniceri||46.50539|21.33672|RO
676529|Comuna Gurahonţ|Comuna Gurahont||46.2922|22.33506|RO
676357|Comuna Hălmăgel|Comuna Halmagel||46.27662|22.6318|RO
676355|Comuna Hălmagiu|Comuna Halmagiu||46.27536|22.58183|RO
676285|Comuna Hăşmaş|Comuna Hasmas|Comuna Hasmas,Comuna Hasmos,Comuna Hăşmaş,Comuna Hăşmoş|46.52217|22.07003|RO
675693|Comuna Igneşti|Comuna Ignesti||46.43388|22.18227|RO
675603|Oraş Ineu|Comuna Ineu||46.42709|21.84185|RO
675505|Comuna Iratoşu|Comuna Iratosu||46.29414|21.1875|RO
674677|Comuna Livada|Comuna Livada||46.21924|21.38746|RO
674243|Comuna Macea|Comuna Macea||46.40094|21.33187|RO
673074|Comuna Mişca|Comuna Misca||46.62016|21.65353|RO
672886|Comuna Moneasa|Comuna Moneasa||46.44443|22.25323|RO
672545|Oraş Nãdlac|Comuna Nadlac||46.16664|20.74871|RO
671872|Comuna Olari|Comuna Olari||46.38673|21.54522|RO
670793|Oraş Pâncota|Comuna Pancota||46.31205|21.70163|RO
671217|Comuna Păuliş|Comuna Paulis||46.12506|21.60246|RO
671185|Oraş Pecica|Comuna Pecica||46.16675|21.06628|RO
671152|Comuna Peregu Mare|Comuna Peregu Mare||46.23377|20.90612|RO
670956|Comuna Petriş|Comuna Petris||46.0677|22.39523|RO
670800|Comuna Pilu|Comuna Pilu||46.59727|21.34711|RO
670513|Comuna Pleşcuţa|Comuna Plescuta||46.28315|22.43178|RO
668260|Comuna Şagu|Comuna Sagu||46.04254|21.34239|RO
666935|Oraş Sântana|Comuna Santana||46.34622|21.50402|RO
667747|Comuna Săvârşin|Comuna Savarsin|Soborsin|46.02527|22.26514|RO
667512|Oraş Sebiş|Comuna Sebis|Borossebes|46.38771|22.1548|RO
667457|Comuna Secusigiu|Comuna Secusigiu||46.0926|21.00295|RO
667433|Comuna Şeitin|Comuna Seitin||46.10858|20.84464|RO
667422|Comuna Seleuş|Comuna Seleus||46.37886|21.74875|RO
667407|Comuna Semlac|Comuna Semlac|Szemlak|46.1126|20.9321|RO
667387|Comuna Şepreuş|Comuna Sepreus||46.57125|21.73417|RO
667244|Comuna Şicula|Comuna Sicula||46.45723|21.75137|RO
667202|Comuna Şilindia|Comuna Silindia|Selend,Selénd|46.33611|21.93488|RO
667147|Comuna Şimand|Comuna Simand||46.424|21.45145|RO
666921|Comuna Sintea Mare|Comuna Sintea Mare||46.51684|21.608|RO
666820|Comuna Şiria|Comuna Siria||46.2847|21.65419|RO
666794|Comuna Şiştarovăţ|Comuna Sistarovat||45.98649|21.75589|RO
666581|Comuna Socodor|Comuna Socodor||46.5101|21.44128|RO
666564|Comuna Şofronea|Comuna Sofronea||46.26814|21.29059|RO
664955|Comuna Târnova|Comuna Tarnova||46.29054|21.80388|RO
665392|Comuna Tauţ|Comuna Taut||46.26383|21.96747|RO
8305978|Comuna Ususău|Comuna Ususau||46.06781|21.8149|RO
663204|Comuna Vărădia de Mureş|Comuna Varadia de Mures||46.04619|22.15651|RO
662768|Comuna Vârfurile|Comuna Varfurile||46.33689|22.51984|RO
662810|Comuna Vinga|Comuna Vinga||46.02249|21.15244|RO
662599|Comuna Vladimirescu|Comuna Vladimirescu||46.16509|21.40411|RO
662365|Comuna Zăbrani|Comuna Zabrani||46.0631|21.58529|RO
662360|Comuna Zădăreni|Comuna Zadareni||46.13077|21.20866|RO
662292|Comuna Zărand|Comuna Zarand||46.43911|21.56909|RO
662221|Comuna Zerind|Comuna Zerind||46.63087|21.50777|RO
662196|Comuna Zimandu Nou|Comuna Zimandu Nou||46.27496|21.39162|RO
8305599|Municipiul Arad|Municipiul Arad||46.17745|21.31348|RO
8306440|Oraş Lipova|Oras Lipova||46.09061|21.69465|RO
686192|Argeş|Arges|Arges,Argeş,Judetul Arges,Judeţul Argeş|45.0|24.83333|RO
686550|Comuna Albeștii de Argeș|Comuna Albestii de Arges||45.21667|24.66667|RO
686549|Comuna Albeștii de Muscel|Comuna Albestii de Muscel||45.31667|25.0|RO
686526|Comuna Albota|Comuna Albota||44.78287|24.81838|RO
686307|Comuna Aninoasa|Comuna Aninoasa||45.20222|24.91206|RO
686199|Comuna Arefu|Comuna Arefu||45.33142|24.62944|RO
685990|Comuna Băbana|Comuna Babana||44.87539|24.71918|RO
685809|Comuna Băiculeşti|Comuna Baiculesti||45.06017|24.67331|RO
685618|Comuna Bălileşti|Comuna Balilesti||45.07981|24.93943|RO
8299667|Comuna Bârla|Comuna Barla||44.42636|24.77949|RO
685304|Comuna Başcov|Comuna Bascov||44.89295|24.78532|RO
685141|Comuna Beleţi-Negreşti|Comuna Beleti-Negresti||44.94651|25.08603|RO
685020|Comuna Berevoeşti|Comuna Berevoesti||45.25327|24.94292|RO
684422|Comuna Bogaţi|Comuna Bogati||44.87344|25.15045|RO
684079|Comuna Boteni|Comuna Boteni||45.17937|25.13073|RO
684065|Comuna Boţeşti|Comuna Botesti||45.00704|25.14723|RO
683929|Comuna Bradu|Comuna Bradu||44.78333|24.9|RO
683925|Comuna Brăduleţ|Comuna Bradulet||45.27502|24.77372|RO
683458|Comuna Budeasa|Comuna Budeasa||44.95042|24.80254|RO
683385|Comuna Bughea de Jos|Comuna Bughea de Jos||45.27404|25.00324|RO
683382|Comuna Bughea de Sus|Comuna Bughea de Sus||45.29812|25.03284|RO
683099|Comuna Buzoeşti|Comuna Buzoesti||44.60205|24.91856|RO
682996|Comuna Căldăraru|Comuna Caldararu||44.45395|24.94263|RO
682944|Comuna Călineşti|Comuna Calinesti||44.8565|25.01968|RO
682559|Comuna Căteasca|Comuna Cateasca||44.77056|25.03633|RO
682414|Comuna Cepari|Comuna Cepari||45.20564|24.53064|RO
682251|Comuna Cetăţeni|Comuna Cetateni||45.19234|25.20789|RO
8299668|Comuna Cicănești|Comuna Cicanesti||45.24577|24.60629|RO
681700|Comuna Ciofrângeni|Comuna Ciofrangeni||45.10277|24.53704|RO
681685|Comuna Ciomăgeşti|Comuna Ciomagesti||44.85656|24.47229|RO
681184|Comuna Cocu|Comuna Cocu||44.87429|24.65112|RO
680885|Comuna Corbeni|Comuna Corbeni||45.29597|24.66207|RO
680878|Comuna Corbi|Comuna Corbi||45.25572|24.81611|RO
680641|Comuna Coşeşti|Comuna Cosesti||45.06431|24.87202|RO
680494|Comuna Cotmeana|Comuna Cotmeana||45.00518|24.62021|RO
680053|Comuna Cuca|Comuna Cuca||44.95654|24.50636|RO
679388|Comuna Dâmbovicioara|Comuna Dambovicioara||45.43452|25.22737|RO
679720|Comuna Dărmăneşti|Comuna Darmanesti|Darmanesti,Dârmănești|45.00656|24.90224|RO
679698|Comuna Davideşti|Comuna Davidesti||45.00694|25.03599|RO
679245|Comuna Dobreşti|Comuna Dobresti||44.94992|25.11907|RO
679115|Comuna Domneşti|Comuna Domnesti||45.20562|24.83945|RO
678982|Comuna Drăganu|Comuna Draganu||44.93761|24.70301|RO
678910|Comuna Dragoslavele|Comuna Dragoslavele||45.33451|25.1701|RO
677004|Comuna Godeni|Comuna Godeni||45.22311|24.97842|RO
676165|Comuna Hârseşti|Comuna Harsesti||44.51091|24.78294|RO
676153|Comuna Hârtieşti|Comuna Hartiesti||45.12629|25.11343|RO
675341|Comuna Izvoru|Comuna Izvoru||44.49414|25.0647|RO
674882|Comuna Leordeni|Comuna Leordeni||44.79117|25.16299|RO
674863|Comuna Lereşti|Comuna Leresti||45.32789|25.06951|RO
8299669|Comuna Lunca Corbului|Comuna Lunca Corbului||44.68361|24.76056|RO
673975|Comuna Mălureni|Comuna Malureni||45.0478|24.77875|RO
673892|Comuna Mărăcineni|Comuna Maracineni||44.90857|24.87484|RO
8299670|Comuna Merișani|Comuna Merisani||44.96674|24.74482|RO
673479|Comuna Miceşti|Comuna Micesti||44.97367|24.85577|RO
673409|Comuna Mihăeşti|Comuna Mihaesti||45.11563|25.01938|RO
673166|Comuna Mioarele|Comuna Mioarele||45.23396|25.10045|RO
673101|Comuna Miroşi|Comuna Mirosi||44.40316|24.9517|RO
8299673|Comuna Morărești|Comuna Moraresti||45.0076|24.56079|RO
672807|Comuna Moşoaia|Comuna Mosoaia||44.83013|24.79957|RO
672712|Comuna Mozăceni|Comuna Mozaceni||44.56366|25.17492|RO
672579|Comuna Mușătești|Comuna Musatesti||45.21667|24.78333|RO
672404|Comuna Negraşi|Comuna Negrasi||44.61441|25.12404|RO
672132|Comuna Nucşoara|Comuna Nucsoara||45.33798|24.78943|RO
672107|Comuna Oarja|Comuna Oarja||44.7573|24.96935|RO
670816|Comuna Pietroşani|Comuna Pietrosani||45.15375|24.84439|RO
670074|Comuna Poiana Lacului|Comuna Poiana Lacului||44.81199|24.71296|RO
670235|Comuna Poienarii de Argeş|Comuna Poienarii de Arges|Poienari|45.06667|24.53333|RO
670234|Comuna Poienarii de Muscel|Comuna Poienarii de Muscel||45.21667|25.05|RO
669867|Comuna Popeşti|Comuna Popesti||44.44521|25.09114|RO
669653|Comuna Priboieni|Comuna Priboieni||44.87728|25.0868|RO
668925|Comuna Râca|Comuna Raca||44.44216|25.03671|RO
669113|Comuna Răteşti|Comuna Ratesti||44.7169|25.15858|RO
669041|Comuna Recea|Comuna Recea||44.54264|25.02738|RO
668780|Comuna Rociu|Comuna Rociu||44.66838|25.02014|RO
668540|Comuna Rucăr|Comuna Rucar||45.41607|25.17338|RO
668225|Comuna Sălătrucu|Comuna Salatrucu||45.29098|24.52523|RO
668079|Comuna Săpata|Comuna Sapata||44.72789|24.7528|RO
667645|Comuna Schitu-Goleşti|Comuna Schitu-Golesti||45.1863|25.00576|RO
666683|Comuna Slobozia|Comuna Slobozia||44.52197|25.24092|RO
666148|Comuna Stâlpeni|Comuna Stalpeni||45.05665|24.99307|RO
666245|Comuna Ştefan cel Mare|Comuna Stefan cel Mare||44.49197|25.2471|RO
666062|Comuna Stoeneşti|Comuna Stoenesti||45.26432|25.17674|RO
666034|Comuna Stolnici|Comuna Stolnici||44.58075|24.77335|RO
665798|Comuna Şuici|Comuna Suici||45.24454|24.53621|RO
665686|Comuna Suseni|Comuna Suseni||44.70861|24.96437|RO
665324|Comuna Teiu|Comuna Teiu||44.64225|25.1411|RO
665112|Comuna Tigveni|Comuna Tigveni||45.15588|24.55094|RO
664900|Comuna Țițești|Comuna Titesti||45.01146|24.97898|RO
664383|Comuna Uda|Comuna Uda||44.87591|24.58582|RO
664269|Comuna Ungheni|Comuna Ungheni||44.51166|24.95186|RO
663797|Comuna Valea Danului|Comuna Valea Danului||45.18962|24.61959|RO
663732|Comuna Valea Iaşului|Comuna Valea Iasului||45.19677|24.70094|RO
663595|Comuna Valea Mare-Pravăţ|Comuna Valea Mare-Pravat|Comuna Valea Mare-Pravat,Comuna Valea Mare-Pravăţ,Valea Mare Pravat|45.289|25.10567|RO
663082|Comuna Vedea|Comuna Vedea||44.77735|24.64677|RO
662615|Comuna Vlădeşti|Comuna Vladesti||45.14344|24.93634|RO
662392|Comuna Vultureşti|Comuna Vulturesti||45.05999|25.0737|RO
8299651|Municipiul Câmpulung|Municipiul Campulung||45.26691|25.04419|RO
8299652|Municipiul Curtea de Argeș|Municipiul Curtea de Arges||45.1384|24.67512|RO
8299650|Municipiul Piteşti|Municipiul Pitesti||44.85782|24.87133|RO
680567|Oraș Costeşti|Oras Costesti||44.66667|24.88333|RO
673161|Oraș Mioveni|Oras Mioveni||44.95897|24.94274|RO
666226|Oraș Ştefăneşti|Oras Stefanesti||44.86667|24.93333|RO
664728|Oraș Topoloveni|Oras Topoloveni||44.81667|25.08333|RO
685947|Bacău|Bacau|Bacau,Bacău,Judetul Bacau,Judeţul Bacău|46.41667|26.83333|RO
686635|Comuna Agăş|Comuna Agas||46.46458|26.22962|RO
686211|Comuna Ardeoani|Comuna Ardeoani||46.52183|26.60165|RO
686087|Comuna Asău|Comuna Asau||46.46495|26.37497|RO
685661|Comuna Balcani|Comuna Balcani||46.64108|26.54412|RO
684765|Comuna Bârsăneşti|Comuna Barsanesti||46.3329|26.68192|RO
685030|Comuna Bereşti-Bistriţa|Comuna Beresti-Bistrita||46.7087|26.85648|RO
685024|Comuna Bereşti-Tazlău|Comuna Beresti-Tazlau||46.48302|26.67877|RO
684969|Comuna Berzunţi|Comuna Berzunti||46.4136|26.62237|RO
684616|Comuna Blăgeşti|Comuna Blagesti||46.68668|26.64835|RO
684387|Comuna Bogdăneşti|Comuna Bogdanesti||46.2179|26.6995|RO
683606|Comuna Brusturoasa|Comuna Brusturoasa||46.51898|26.19352|RO
683557|Comuna Buciumi|Comuna Buciumi||46.21353|26.78584|RO
683366|Comuna Buhoci|Comuna Buhoci|Comuna Bohociu,Comuna Buhoci|46.56581|27.00824|RO
683043|Comuna Căiuţi|Comuna Caiuti||46.17987|26.91633|RO
673257|Comuna Caşin|Comuna Casin||46.19394|26.72923|RO
681339|Comuna Cleja|Comuna Cleja||46.40183|26.92104|RO
681094|Comuna Coloneşti|Comuna Colonesti||46.60471|27.26584|RO
680893|Comuna Corbasca|Comuna Corbasca||46.29728|27.13675|RO
680484|Comuna Coţofăneşti|Comuna Cotofanesti||46.14808|26.98644|RO
679787|Comuna Dămieneşti|Comuna Damienesti||46.7431|27.00649|RO
679719|Oraş Dãrmãneşti|Comuna Darmanesti||46.37559|26.47673|RO
8334699|Comuna Dealu Morii|Comuna Dealu Morii||46.30877|27.29511|RO
679165|Comuna Dofteana|Comuna Dofteana||46.32282|26.53081|RO
678450|Comuna Faraoani|Comuna Faraoani||46.43375|26.89835|RO
678252|Comuna Filipeni|Comuna Filipeni||46.53357|27.19114|RO
678246|Comuna Filipeşti|Comuna Filipesti||46.76821|26.89338|RO
677722|Comuna Găiceana|Comuna Gaiceana||46.3506|27.22154|RO
8334687|Comuna Gârleni|Comuna Garleni||46.66251|26.78819|RO
677376|Comuna Ghimeş-Făget|Comuna Ghimes-Faget||46.60483|26.05354|RO
8334679|Comuna Gioseni|Comuna Gioseni||46.42925|26.99239|RO
677083|Comuna Glăvăneşti|Comuna Glavanesti||46.26329|27.38778|RO
668844|Comuna Gura Văii|Comuna Gura Vaii||46.27305|26.82312|RO
676261|Comuna Helegiu|Comuna Helegiu||46.34967|26.7669|RO
676250|Comuna Hemeiuşi|Comuna Hemeiusi|Comuna Hemeius,Comuna Hemeiusi,Comuna Hemeiuş,Comuna Hemeiuşi|46.61927|26.85729|RO
676015|Comuna Horgeşti|Comuna Horgesti||46.39837|27.05603|RO
675899|Comuna Huruieşti|Comuna Huruesti||46.25297|27.23828|RO
675455|Comuna Iteşti|Comuna Itesti||46.67368|26.85555|RO
675332|Comuna Izvoru Berheciului|Comuna Izvoru Berheciului|Comuna Gloduri,Comuna Izvoru Berheciului|46.57693|27.22842|RO
674825|Comuna Letea Veche|Comuna Letea Veche|Comuna Letea-Veche|46.54236|26.96869|RO
674731|Comuna Lipova|Comuna Lipova||46.72016|27.23238|RO
8334722|Comuna Livezi|Comuna Livezi||46.39932|26.72438|RO
8334656|Comuna Luizi-Cãlugãra|Comuna Luizi-Calugara||46.53604|26.84012|RO
674171|Comuna Măgireşti|Comuna Magiresti||46.50965|26.53727|RO
674129|Comuna Măgura|Comuna Magura||46.56065|26.839|RO
8334655|Comuna Mãnãstirea Caşin|Comuna Manastirea Casin||46.14381|26.695|RO
673788|Comuna Mărgineni|Comuna Margineni||46.59779|26.80505|RO
672759|Comuna Motoşeni|Comuna Motoseni|Comuna Fataciuni,Comuna Fătăciuni,Comuna Motoseni,Comuna Motoşeni,Comuna Ursa-Motoseni,Comuna Ursa-Motoşeni|46.32779|27.41721|RO
672363|Comuna Negri|Comuna Negri||46.705|26.97216|RO
672267|Comuna Nicolae Bălcescu|Comuna Nicolae Balcescu||46.46687|26.88837|RO
671970|Comuna Odobeşti|Comuna Odobesti||46.66902|27.13224|RO
671894|Comuna Oituz|Comuna Oituz||46.19045|26.56043|RO
8334831|Comuna Onceşti|Comuna Oncesti||46.47537|27.25835|RO
671735|Comuna Orbeni|Comuna Orbeni||46.26934|27.01872|RO
671468|Comuna Palanca|Comuna Palanca||46.50647|26.11239|RO
671400|Comuna Pănceşti|Comuna Pancesti||46.36459|27.11377|RO
671351|Comuna Parava|Comuna Parava||46.30993|26.96787|RO
670767|Comuna Pârgăreşti|Comuna Pargaresti||46.24414|26.65017|RO
671335|Comuna Parincea|Comuna Parincea||46.47841|27.12877|RO
670705|Comuna Pârjol|Comuna Parjol||46.59014|26.60903|RO
670471|Comuna Plopana|Comuna Plopana||46.66549|27.24403|RO
670256|Comuna Podu Turcului|Comuna Podu Turcului||46.19703|27.38796|RO
670271|Comuna Poduri|Comuna Poduri||46.47888|26.56593|RO
669724|Comuna Prăjeşti|Comuna Prajesti||46.65469|26.97631|RO
669407|Comuna Răcăciuni|Comuna Racaciuni||46.35011|26.96705|RO
669363|Comuna Răchitoasa|Comuna Rachitoasa||46.44772|27.36875|RO
669332|Comuna Racova|Comuna Racova||46.6979|26.78097|RO
668609|Comuna Roşiori|Comuna Rosiori||46.7262|27.10446|RO
668103|Comuna Sănduleni|Comuna Sanduleni||46.45082|26.74185|RO
668039|Comuna Sărata|Comuna Sarata||46.49582|26.86916|RO
667916|Comuna Sascut|Comuna Sascut|Comuna Sascut,Comuna Sascut-Tirg,Comuna Sascut-Tîrg|46.19288|27.09163|RO
667777|Comuna Săuceşti|Comuna Saucesti|Comuna Catelesti,Comuna Căţeleşti,Comuna Saucesti,Comuna Săuceşti|46.65781|26.93368|RO
667584|Comuna Scorţeni|Comuna Scorteni||46.58037|26.68543|RO
667464|Comuna Secuieni|Comuna Secuieni||46.65329|27.09674|RO
666482|Comuna Solonţ|Comuna Solont||46.56929|26.53863|RO
666283|Comuna Stănişeşti|Comuna Stanisesti||46.4276|27.31055|RO
663413|Comuna Ştefan Cel Mare|Comuna Stefan Cel Mare||46.20645|26.85488|RO
665920|Comuna Strugari|Comuna Strugari|Comuna Strugari,Comuna Strungari|46.52715|26.73578|RO
8334959|Comuna Tamaşi|Comuna Tamasi||46.48841|26.99549|RO
664990|Comuna Târgu Trotuş|Comuna Targu Trotus||46.26789|26.67587|RO
665449|Comuna Tătărăşti|Comuna Tatarasti||46.22823|27.19631|RO
664667|Comuna Traian|Comuna Traian||46.64706|27.03533|RO
8334719|Comuna Ungureni|Comuna Ungureni||46.54522|27.1068|RO
664167|Comuna Urecheşti|Comuna Urechesti||46.12425|27.0707|RO
663412|Comuna Valea Seacă|Comuna Valea Seaca||46.24851|27.04535|RO
8334850|Comuna Vultureni|Comuna Vultureni||46.41385|27.23668|RO
662224|Comuna Zemeş|Comuna Zemes|Comuna Tazlau de Sus,Comuna Tazlău de Sus,Comuna Zemes,Comuna Zemeş|46.59171|26.43381|RO
8306520|Municipiul Bacãu|Municipiul Bacau||46.56854|26.91135|RO
8306838|Municipiul Moineşti|Municipiul Moinesti||46.47428|26.48804|RO
677464|Municipiul Oneşti|Municipiul Onesti|Gheorghe Gheorghiu-Dej,Onesti,Oneşti|46.25|26.75|RO
8306597|Oraş Buhuşi|Oras Buhusi||46.71845|26.69952|RO
8306731|Oraş Comãneşti|Oras Comanesti||46.42348|26.42796|RO
8306945|Oraş Slãnic-Moldova|Oras Slanic-Moldova|Oras Slanic Moldova,Oraş Slãnic Moldova|46.2232|26.47774|RO
8307014|Oraş Târgu Ocna|Oras Targu Ocna||46.27988|26.61129|RO
684878|Bihor|Bihor|Bihar megye,Bihor,Judetul Bihor,Judeţul Bihor,Județul Bihor|47.0|22.33333|RO
8299646|Comuna Abram|Comuna Abram||47.32443|22.42023|RO
686714|Comuna Abrămuţ|Comuna Abramut||47.33346|22.25607|RO
686075|Comuna Aştileu|Comuna Astileu||47.02217|22.38444|RO
8334681|Comuna Auşeu|Comuna Auseu||47.04398|22.50835|RO
686013|Comuna Avram Iancu|Comuna Avram Iancu||46.66944|21.52417|RO
685664|Comuna Balc|Comuna Balc|Comuna Balc,Comuna Bale|47.31135|22.49954|RO
685278|Comuna Batăr|Comuna Batar||46.71431|21.79161|RO
684881|Comuna Biharia|Comuna Biharea||47.16001|21.93299|RO
684330|Comuna Boianu Mare|Comuna Boianu Mare||47.37481|22.52507|RO
684178|Comuna Borod|Comuna Borod||47.00503|22.60907|RO
684160|Comuna Borş|Comuna Bors||47.13073|21.83139|RO
683836|Comuna Bratca|Comuna Bratca|Comuna Beznea,Comuna Bratca|46.91794|22.61825|RO
683609|Comuna Brusturi|Comuna Brusturi||47.1441|22.26514|RO
683403|Comuna Budureasa|Comuna Budureasa||46.66968|22.46418|RO
683397|Comuna Buduslău|Comuna Buduslau||47.39559|22.25387|RO
683309|Comuna Bulz|Comuna Bulz||46.8528|22.66659|RO
683251|Comuna Bunteşti|Comuna Buntesti||46.60703|22.50202|RO
683090|Comuna Căbeşti|Comuna Cabesti||46.76593|22.37157|RO
681885|Comuna Câmpani|Comuna Campani||46.52443|22.52744|RO
682807|Comuna Cãpâlna|Comuna Capalnas||46.73682|22.11114|RO
682663|Comuna Cărpinet|Comuna Carpinet||46.44163|22.48917|RO
682451|Comuna Cefa|Comuna Cefa||46.90898|21.6941|RO
682439|Comuna Ceica|Comuna Ceica||46.86444|22.18165|RO
682269|Comuna Cetariu|Comuna Cetariu||47.15015|22.05458|RO
682194|Comuna Cherechiu|Comuna Cherechiu||47.3993|22.1355|RO
682002|Comuna Chişlaz|Comuna Chislaz||47.26657|22.233|RO
681429|Comuna Ciumeghiu|Comuna Ciumeghiu||46.71025|21.62604|RO
681213|Comuna Cociuba Mare|Comuna Cociuba Mare||46.72899|22.03966|RO
680935|Comuna Copăcel|Comuna Copacel||46.97234|22.16731|RO
680159|Comuna Criștioru de Jos|Comuna Cristioru de Jos||46.42333|22.56565|RO
679944|Comuna Curăţele|Comuna Curatele||46.7031|22.43719|RO
679892|Comuna Curtuişeni|Comuna Curtuiuseni||47.53247|22.22961|RO
679469|Comuna Derna|Comuna Derna||47.208|22.28821|RO
679339|Comuna Diosig|Comuna Diosig|Comuna Diosig|47.29561|21.99354|RO
679244|Comuna Dobreşti|Comuna Dobresti||46.84465|22.26931|RO
678991|Comuna Drăgăneşti|Comuna Draganesti||46.63469|22.40824|RO
678972|Comuna Drăgeşti|Comuna Dragesti||46.90374|22.12533|RO
678207|Comuna Finiş|Comuna Finis||46.64312|22.27621|RO
677500|Comuna Gepiu|Comuna Gepiu||46.91616|21.78903|RO
677191|Comuna Girişu de Criş|Comuna Girisu de Cris||47.07118|21.76861|RO
8334680|Comuna Hidişelu De Sus|Comuna Hidiselu De Sus||46.92893|22.02467|RO
676068|Comuna Holod|Comuna Holod||46.79584|22.11471|RO
675895|Comuna Husasău de Tinca|Comuna Husasau de Tinca||46.84896|21.91914|RO
675602|Comuna Ineu|Comuna Ineu||47.09119|22.10816|RO
674971|Comuna Lăzăreni|Comuna Lazareni||46.85956|22.06685|RO
674944|Comuna Lazuri de Beiuş|Comuna Lazuri de Beius||46.59381|22.39675|RO
8334688|Comuna Lugaşu De Jos|Comuna Lugasu De Jos||47.06992|22.32929|RO
674445|Comuna Lunca|Comuna Lunca||46.51645|22.45486|RO
674210|Comuna Mădăraş|Comuna Madaras||46.84296|21.7208|RO
674187|Comuna Măgeşti|Comuna Magesti||47.00929|22.4533|RO
672170|Comuna Nojorid|Comuna Nojorid||46.97144|21.87747|RO
671868|Comuna Olcea|Comuna Olcea||46.6609|21.98452|RO
671643|Comuna Oşorhei|Comuna Osorheiu||47.02748|22.0449|RO
671454|Comuna Paleu|Comuna Paleu||47.10762|21.97748|RO
670830|Comuna Pietroasa|Comuna Pietroasa||46.58383|22.63371|RO
670359|Comuna Pocola|Comuna Pocola||46.69894|22.29593|RO
669951|Comuna Pomezeu|Comuna Pomezeu||46.79113|22.30018|RO
669875|Comuna Popeşti|Comuna Popesti||47.22088|22.41515|RO
669411|Comuna Răbăgani|Comuna Rabagani||46.75432|22.24302|RO
668985|Comuna Remetea|Comuna Remetea||46.72956|22.35276|RO
668912|Comuna Rieni|Comuna Rieni|Comuna Rieni,Comuna Valea Neagra,Comuna Valea Neagra de Jos,Comuna Valea Neagră,Comuna Valea Neagră de Jos|46.56878|22.44508|RO
668650|Comuna Roşia|Comuna Rosia||46.79896|22.40529|RO
668608|Comuna Roşiori|Comuna Rosiori||47.25579|21.96166|RO
668351|Comuna Săcădat|Comuna Sacadat||47.0471|22.15892|RO
668295|Oraş Sãcueni|Comuna Sacueni||47.32996|22.11802|RO
668251|Comuna Sălacea|Comuna Salacea||47.44844|22.27208|RO
668242|Comuna Sălard|Comuna Salard||47.23151|22.02068|RO
667143|Comuna Sâmbăta|Comuna Sambata||46.79819|22.20489|RO
681457|Comuna Sâniob|Comuna Saniob|Comuna Ciuhoi|47.24558|22.12533|RO
667001|Comuna Sânmartin|Comuna Sanmartin||46.99058|21.98565|RO
666977|Comuna Sânnicolau-Român|Comuna Sannicolau-Roman||46.96414|21.71886|RO
8334658|Comuna Sântandrei|Comuna Santandrei||47.06498|21.83947|RO
666839|Comuna Sârbi|Comuna Sarbi||47.1903|22.13789|RO
667116|Comuna Şimian|Comuna Simian||47.46477|22.05881|RO
666923|Comuna Şinteu|Comuna Sinteu||47.14585|22.50629|RO
8334673|Comuna Şoimi|Comuna Soimi||46.67063|22.13427|RO
666348|Comuna Spinuş|Comuna Spinus||47.20209|22.20217|RO
8334671|Comuna Şuncuiuş|Comuna Suncuius||46.92521|22.53323|RO
665761|Comuna Suplacu de Barcău|Comuna Suplacu de Barcau||47.24335|22.49235|RO
8334820|Comuna Tãmãşeu|Comuna Tamaseu||47.22096|21.90399|RO
665524|Comuna Tărcaia|Comuna Tarcaia||46.61041|22.36364|RO
665516|Comuna Tarcea|Comuna Tarcea||47.45767|22.18937|RO
665386|Comuna Tăuteu|Comuna Tauteu|Comuna Tauteu,Comuna Tăuteu,Toti|47.28131|22.35612|RO
8334677|Comuna Ţeţchea|Comuna Tetchea||47.03659|22.29798|RO
665103|Comuna Tileagd|Comuna Tileagd||47.06556|22.20707|RO
665070|Comuna Tinca|Comuna Tinca||46.7631|21.9364|RO
6942371|Comuna Toboliu|Comuna Toboliu||47.04042|21.7032|RO
664520|Comuna Tulca|Comuna Tulca||46.78881|21.79763|RO
664352|Comuna Uileacu de Beiuş|Comuna Uileacu de Beius|Comuna Uileac de Beius,Comuna Uileac de Beiuş,Comuna Uileacu de Beius,Comuna Uileacu de Beiuş|46.70215|22.22417|RO
664010|Comuna Vadu Crişului|Comuna Vadu Crisului||46.97192|22.50274|RO
663951|Oraş Vaşcãu|Comuna Valcau||46.47493|22.46292|RO
663691|Oraş Valea Lui Mihai|Comuna Valea lui Mihai||47.52099|22.13196|RO
662784|Comuna Vârciorog|Comuna Varciorog||46.96551|22.29681|RO
671277|Comuna Viişoara|Comuna Viisoara||47.38333|22.45|RO
8334690|Municipiul Beiuş|Municipiul Beius||46.68074|22.34566|RO
673815|Municipiul Marghita|Municipiul Marghita||47.34534|22.33452|RO
8334659|Municipiul Oradea|Municipiul Oradea||47.05353|21.93633|RO
8334983|Municipiul Salonta|Municipiul Salonta||46.80283|21.66415|RO
686506|Oraș Aleşd|Oras Alesd||47.08772|22.41384|RO
8334653|Oraş Nucet|Oras Nucet||46.48496|22.58901|RO
8334654|Oraş Ştei|Oras Stei||46.53767|22.45795|RO
684647|Bistriţa-Năsăud|Bistrita-Nasaud|Beszterce-Naszod megye,Beszterce-Naszód megye,Bistrita-Nasaud,Bistriţa-Năsăud,Judetul Bistrita-Nasaud,Judeţul Bistriţa-Năsăud|47.16667|24.58333|RO
685201|Oraş Beclean|Comuna Beclean||47.16124|24.17385|RO
684648|Comuna Bistriţa Bârgăului|Comuna Bistrita Bargaului|Comuna Bistrita Bargaului,Comuna Bistrita Birgaului,Comuna Bistriţa Bîrgăului,Comuna Bistriţa Bărgăului|47.19026|24.83429|RO
683852|Comuna Braniştea|Comuna Branistea||47.1625|24.07815|RO
683468|Comuna Budacu de Jos|Comuna Budacu de Jos||47.08214|24.5184|RO
683430|Comuna Budeşti|Comuna Budesti||46.83403|24.23802|RO
683053|Comuna Căianu|Comuna Caianu|Comuna Caianu,Comuna Caianu Mic,Comuna Căianu,Comuna Căianu Mic|47.25389|24.1344|RO
682084|Comuna Chiochiş|Comuna Chiochis||46.98381|24.18318|RO
681976|Comuna Chiuza|Comuna Chiuza||47.24007|24.24001|RO
681950|Comuna Ciceu-Giurgeşti|Comuna Ciceu-Giurgesti||47.26529|24.0038|RO
681948|Comuna Ciceu-Mihăieşti|Comuna Ciceu-Mihaiesti|Comuna Ciceu-Mihaesti,Comuna Ciceu-Mihaiesti,Comuna Ciceu-Mihăeşti,Comuna Ciceu-Mihăieşti|47.21738|23.95696|RO
680659|Comuna Coşbuc|Comuna Cosbuc||47.36544|24.3922|RO
678659|Comuna Dumitra|Comuna Dumitra||47.21675|24.43434|RO
678645|Comuna Dumitriţa|Comuna Dumitrita||47.06781|24.63503|RO
678357|Comuna Feldru|Comuna Feldru||47.27796|24.56415|RO
677690|Comuna Galaţii Bistriţei|Comuna Galatii Bistritei||46.99307|24.42153|RO
675631|Comuna Ilva Mare|Comuna Ilva Mare||47.351|24.8963|RO
675628|Comuna Ilva Mică|Comuna Ilva Mica||47.3076|24.66035|RO
675167|Comuna Josenii Bârgăului|Comuna Josenii Bargaului||47.21238|24.66351|RO
674930|Comuna Lechinţa|Comuna Lechinta||47.01983|24.32605|RO
674840|Comuna Leşu|Comuna Lesu||47.31077|24.76369|RO
8334860|Comuna Livezile|Comuna Livezile||47.17744|24.63595|RO
674401|Comuna Lunca Ilvei|Comuna Lunca Ilvei||47.36409|24.97106|RO
674123|Comuna Măgura Ilvei|Comuna Magura Ilvei||47.36625|24.82185|RO
674060|Comuna Măieru|Comuna Maieru||47.40738|24.7568|RO
673770|Comuna Mărişelu|Comuna Mariselu||47.01066|24.5126|RO
673677|Comuna Matei|Comuna Matei||46.9993|24.26029|RO
673476|Comuna Miceştii de Câmpie|Comuna Micestii de Campie||46.84309|24.31568|RO
673331|Comuna Milas|Comuna Milas||46.82249|24.43371|RO
672882|Comuna Monor|Comuna Monor||46.95475|24.70106|RO
672354|Comuna Negrileşti|Comuna Negrilesti||47.31054|24.05557|RO
672218|Comuna Nimigea|Comuna Nimigea||47.24697|24.30623|RO
672124|Comuna Nuşeni|Comuna Nuseni||47.09063|24.17525|RO
671310|Comuna Parva|Comuna Parva||47.39601|24.54218|RO
8334782|Comuna Petru Rareş|Comuna Petru Rares||47.19221|24.00731|RO
8334821|Comuna Poiana  Ilvei|Comuna Poiana  Ilvei||47.35749|24.74104|RO
669539|Comuna Prundu Bârgăului|Comuna Prundu Bargaului||47.22154|24.7245|RO
669084|Comuna Războeni-Cetate|Comuna Razboeni-Cetate||47.11072|24.62878|RO
669065|Comuna Rebra|Comuna Rebra||47.32588|24.49984|RO
669059|Comuna Rebrişoara|Comuna Rebrisoara||47.31994|24.46568|RO
668771|Comuna Rodna|Comuna Rodna||47.4514|24.82366|RO
668686|Comuna Romuli|Comuna Romuli||47.56247|24.42897|RO
8334807|Comuna Runcu Salvei|Comuna Runcu Salvei||47.34382|24.32529|RO
668123|Comuna Salva|Comuna Salva||47.30586|24.35557|RO
667028|Oraş Sângeorz-Bãi|Comuna Sangeorz-Bai||47.3778|24.66979|RO
666986|Comuna Sânmihaiu de Câmpie|Comuna Sanmihaiu de Campie||46.8964|24.34323|RO
668090|Comuna Şanţ|Comuna Sant||47.45266|24.91842|RO
667239|Comuna Şieu|Comuna Sieu||47.01244|24.62425|RO
667237|Comuna Şieu-Măgheruş|Comuna Sieu-Magherus||47.08975|24.37651|RO
667234|Comuna Şieu-Odorhei|Comuna Sieu-Odorhei||47.13288|24.26856|RO
667231|Comuna Şieuţ|Comuna Sieut||46.9988|24.67935|RO
667151|Comuna Silivaşu De Câmpie|Comuna Silvasu de Campie||46.78127|24.29155|RO
666915|Comuna Şintereag|Comuna Sintereag||47.16796|24.31655|RO
666368|Comuna Spermezeu|Comuna Spermezeu||47.3|24.15|RO
664975|Comuna Târlişua|Comuna Tarlisua||47.40584|24.16514|RO
665369|Comuna Teaca|Comuna Teaca||46.91151|24.47653|RO
665303|Comuna Telciu|Comuna Telciu||47.4507|24.39396|RO
665109|Comuna Tiha Bârgăului|Comuna Tiha Bargaului||47.23676|24.87913|RO
664151|Comuna Uriu|Comuna Uriu||47.21202|24.07755|RO
664125|Comuna Urmeniş|Comuna Urmenis||46.79559|24.35923|RO
662347|Comuna Zagra|Comuna Zagra||47.37083|24.26057|RO
8334700|Municipiul Bistriţa|Municipiul Bistrita||47.13499|24.49115|RO
8334783|Oraş Nãsãud|Oras Nasaud||47.27491|24.41483|RO
684038|Botoşani|Botosani|Botosani,Botoşani,Judetul Botosani,Judeţul Botoşani|47.83333|26.75|RO
686681|Comuna Adăşeni|Comuna Adaseni||48.06287|26.95205|RO
686546|Comuna Albeşti|Comuna Albesti||47.68387|27.08704|RO
686027|Comuna Avrămeni|Comuna Avrameni||48.02439|26.95734|RO
685505|Comuna Băluşeni|Comuna Baluseni||47.67758|26.77855|RO
684565|Comuna Blândeşti|Comuna Blandesti||47.71218|26.89193|RO
683916|Comuna Brăeşti|Comuna Braesti||47.84903|26.45715|RO
683655|Comuna Broscăuţi|Comuna Broscauti||47.95596|26.46648|RO
683601|Oraş Bucecea|Comuna Bucecea||47.77741|26.43966|RO
683017|Comuna Călăraşi|Comuna Calarasi||47.6034|27.27766|RO
681815|Comuna Cândeşti|Comuna Candesti||47.92325|26.2205|RO
680976|Comuna Conceşti|Comuna Concesti||48.14676|26.57937|RO
680910|Comuna Copălău|Comuna Copalau||47.6112|26.86778|RO
680838|Comună Cordăreni|Comuna Cordareni||48.0042|26.59106|RO
680814|Comuna Corlăteni|Comuna Corlateni||47.93121|26.58515|RO
680738|Comuna Corni|Comuna Corni||47.64025|26.60869|RO
680528|Comuna Coşula|Comuna Cosula||47.61915|26.78553|RO
680439|Comuna Coţuşca|Comuna Cotusca||48.12109|26.87179|RO
680172|Comuna Cristeşti|Comuna Cristesti||47.61482|26.71546|RO
680160|Comuna Cristineşti|Comuna Cristinesti||48.10199|26.36951|RO
8334781|Comuna Curteşti|Comuna Curtesti||47.70275|26.64109|RO
679350|Comuna Dângeni|Comuna Dangeni||47.84762|26.94817|RO
679734|Oraş Darabani|Comuna Darabani||48.17429|26.61519|RO
679466|Comuna Dersca|Comuna Dersca||47.98958|26.21496|RO
679397|Comuna Dimăcheni|Comuna Dimacheni||47.91832|26.54362|RO
679278|Comuna Dobârceni|Comuna Dobarceni||47.83289|27.07611|RO
678876|Comuna Drăguşeni|Comuna Draguseni||48.0329|26.81987|RO
678603|Comuna Durneşti|Comuna Durnesti||47.76992|27.09406|RO
678079|Oraş Flãmânzi|Comuna Flamanzi||47.56193|26.90381|RO
677871|Comuna Frumuşica|Comuna Frumusica||47.52602|26.87967|RO
677507|Comuna George Enescu|Comuna George Enescu||48.03617|26.51437|RO
676917|Comuna Gorbăneşti|Comuna Gorbanesti||47.7745|26.88143|RO
676333|Comuna Hăneşti|Comuna Hanesti||47.91987|27.01151|RO
676267|Comuna Havârna|Comuna Havarna||48.05683|26.68314|RO
8334872|Comuna Hilişeu-Horia|Comuna Hiliseu-Horia||48.01336|26.29685|RO
676137|Comuna Hlipiceni|Comuna Hlipiceni||47.60401|27.1708|RO
675940|Comuna Hudeşti|Comuna Hudesti||48.1528|26.50102|RO
675780|Comuna Ibăneşti|Comuna Ibanesti||48.04435|26.4045|RO
674887|Comuna Leorda|Comuna Leorda||47.81862|26.45408|RO
674578|Comuna Lozna|Comuna Lozna||47.9441|26.28694|RO
674443|Comuna Lunca|Comuna Lunca||47.62751|26.9924|RO
673907|Comuna Manoleasa|Comuna Manoleasa||48.00852|27.07951|RO
8334651|Comuna Mihai Eminescu|Comuna Mihai Eminescu||47.76632|26.56267|RO
673388|Comuna Mihăileni|Comuna Mihaileni||47.95552|26.16204|RO
673358|Comuna Mihălăşeni|Comuna Mihalaseni||47.87956|27.0962|RO
673314|Comuna Mileanca|Comuna Mileanca||48.09121|26.72965|RO
673053|Comuna Mitoc|Comuna Mitoc||48.11288|27.00423|RO
672239|Comuna Nicşeni|Comuna Nicseni||47.8617|26.66023|RO
671424|Comuna Păltiniş|Comuna Paltinis||48.23494|26.68555|RO
669946|Comuna Pomârla|Comuna Pomarla||48.06225|26.3209|RO
669729|Comuna Prăjeni|Comuna Prajeni||47.49577|27.02386|RO
669370|Comuna Răchiţi|Comuna Rachiti||47.77282|26.68847|RO
8334951|Comuna Rãdãuţi-Prut|Comuna Radauti-Prut||48.22492|26.81304|RO
669096|Comuna Răuseni|Comuna Rauseni||47.55941|27.22551|RO
668848|Comuna Ripiceni|Comuna Ripiceni||47.91899|27.13958|RO
668735|Comuna Roma|Comuna Roma||47.84497|26.57084|RO
668726|Comuna Româneşti|Comuna Romanesti|Comuna Romanesti,Comuna Rominesti,Comuna Româneşti,Comuna Romîneşti|47.7086|27.23491|RO
8334832|Comuna Santa Mare|Comuna Santa Mare||47.63308|27.3026|RO
667755|Oraş Sãveni|Comuna Saveni||47.95998|26.86677|RO
667394|Comuna Şendriceni|Comuna Sendriceni||47.94657|26.32957|RO
666262|Comuna Stăuceni|Comuna Stauceni||47.72142|26.77471|RO
666225|Oraş Ştefãneşti|Comuna Stefanesti||47.78834|27.20601|RO
666084|Comuna Ştiubieni|Comuna Stiubieni||47.97903|26.7642|RO
665808|Comuna Suharău|Comuna Suharau||48.11697|26.44743|RO
665787|Comuna Suliţa|Comuna Sulita||47.63723|26.9351|RO
664863|Comuna Todireni|Comuna Todireni||47.61386|27.10122|RO
664577|Comuna Truşeşti|Comuna Trusesti||47.78058|26.98911|RO
664574|Comuna Tudora|Comuna Tudora||47.50773|26.63397|RO
664222|Comuna Ungureni|Comuna Ungureni||47.90384|26.76051|RO
664192|Comuna Unţeni|Comuna Unteni||47.81164|26.77886|RO
664033|Comuna Văculeşti|Comuna Vaculesti||47.88229|26.3859|RO
662777|Comuna Vârfu Câmpului|Comuna Varfu Campului||47.86108|26.31529|RO
8334956|Comuna Viişoara|Comuna Viisoara||48.16752|26.74267|RO
662627|Comuna Vlădeni|Comuna Vladeni||47.72216|26.5088|RO
662552|Comuna Vlăsineşti|Comuna Vlasinesti||47.93988|26.91901|RO
662472|Comuna Vorniceni|Comuna Vorniceni||47.96004|26.64699|RO
662467|Comuna Vorona|Comuna Vorona||47.57859|26.6138|RO
684037|Municipiul Botoşani|Municipiul Botosani||47.73984|26.67156|RO
8334728|Municipiul Dorohoi|Municipiul Dorohoi||47.96772|26.41685|RO
683901|Brăila|Braila|Braila,Brăila,Judetul Braila,Judeţul Brăila|45.08333|27.66667|RO
685428|Comuna Bărăganul|Comuna Baraganul|Comuna Baraganul,Comuna Bărăganul,Comuna Cioara-Doicesti,Comuna Cioara-Doiceşti|44.81068|27.51515|RO
684982|Comuna Berteştii de Jos|Comuna Bertestii de Jos||44.83024|27.72008|RO
684215|Comuna Bordei Verde|Comuna Bordei Verde||45.03225|27.57088|RO
683431|Comuna Dudeşti|Comuna Budesti||44.87624|27.44325|RO
682489|Comuna Cazasu|Comuna Cazasu||45.27172|27.89011|RO
682019|Comuna Chiscani|Comuna Chiscani||45.2088|27.91776|RO
681724|Comuna Ciocile|Comuna Ciocile||44.82211|27.2518|RO
681590|Comuna Cireşu|Comuna Ciresu||44.95368|27.37901|RO
678391|Oraş Fãurei|Comuna Faurei||45.08534|27.27155|RO
8334754|Comuna Frecãţei|Comuna Frecatei||44.85977|28.08422|RO
677675|Comuna Galbenu|Comuna Galbenu||45.19252|27.16669|RO
677531|Comuna Gemenele|Comuna Gemenele||45.28931|27.65637|RO
676807|Comuna Grădiştea|Comuna Gradistea||45.24832|27.38192|RO
676676|Comuna Gropeni|Comuna Gropeni||45.07328|27.88606|RO
675837|Oraş Ianca|Comuna Ianca||45.11446|27.50205|RO
675589|Oraş Însurãţei|Comuna Insuratei||44.91928|27.64433|RO
675214|Comuna Jirlău|Comuna Jirlau||45.15314|27.209|RO
673872|Comuna Măraşu|Comuna Marasu||45.00807|27.98062|RO
673650|Comuna Măxineni|Comuna Maxineni||45.41803|27.6647|RO
673146|Comuna Mircea Vodă|Comuna Mircea Voda||45.12889|27.38258|RO
672743|Comuna Movila Miresii|Comuna Movila Miresei||45.19574|27.60368|RO
669317|Comuna Racoviţa|Comuna Racovita||45.30627|27.4672|RO
668881|Comuna Râmnicelu|Comuna Ramnicelu||45.29786|27.51338|RO
668722|Comuna Romanu|Comuna Romanu||45.31818|27.74046|RO
668610|Comuna Roşiori|Comuna Rosiori||44.84097|27.34129|RO
668197|Comuna Salcia Tudor|Comuna Salcia Tudor||45.4026|27.5038|RO
667589|Comuna Scorţaru Nou|Comuna Scortaru Nou||45.34905|27.61478|RO
667174|Comuna Siliştea|Comuna Silistea|Comuna Naziru,Comuna Nazîru,Comuna Silistea,Comuna Siliştea|45.35263|27.82592|RO
666308|Comuna Stăncuţa|Comuna Stancuta||44.88885|27.79614|RO
665737|Comuna Surdila-Găiseanca|Comuna Surdila-Gaiseanca||45.09893|27.33491|RO
665735|Comuna Surdila-Greci|Comuna Surdila-Greci||45.07288|27.2684|RO
665661|Comuna Şuţeşti|Comuna Sutesti||45.22101|27.47067|RO
665174|Comuna Tichileşti|Comuna Tichilesti||45.14822|27.89059|RO
664668|Comuna Traian|Comuna Traian||45.15355|27.6917|RO
664557|Comuna Tudor Vladimirescu|Comuna Tudor Vladimirescu||45.22537|27.75299|RO
664537|Comuna Tufeşti|Comuna Tufesti||44.98719|27.80256|RO
664284|Comuna Ulmu|Comuna Ulmu|Comuna Ulmu,General Poetas Comuna,General Poetaş Comuna|44.94821|27.29836|RO
8334644|Comuna Unirea|Comuna Unirea||45.10592|27.77613|RO
664016|Comuna Vădeni|Comuna Vadeni||45.33745|27.90589|RO
662981|Comuna Victoria|Comuna Victoria||44.79568|27.67036|RO
662708|Comuna Vişani|Comuna Visani||45.18495|27.30611|RO
662650|Comuna Viziru|Comuna Viziru||45.02027|27.73217|RO
662257|Comuna Zăvoaia|Comuna Zavoaia||44.95276|27.45613|RO
8334707|Municipiul Brãila|Municipiul Braila||45.2719|27.975|RO
683843|Braşov|Brasov|Brasov,Braşov,Judetul Brasov,Judeţul Braşov|45.75|25.33333|RO
686280|Comuna Apaţa|Comuna Apata||45.95043|25.53312|RO
8334645|Comuna Augustin|Comuna Augustin||46.04613|25.55333|RO
685202|Comuna Beclean|Comuna Beclean||45.83119|24.92317|RO
684476|Comuna Bod|Comuna Bod||45.75987|25.62077|RO
683888|Comuna Bran|Comuna Bran||45.51412|25.37289|RO
683421|Comuna Budila|Comuna Budila||45.67432|25.80793|RO
683272|Comuna Buneşti|Comuna Bunesti||46.10042|25.05528|RO
682580|Comuna Caţa|Comuna Cata||46.13174|25.26977|RO
681826|Comuna Cincu|Comuna Cincu||45.90712|24.77333|RO
681032|Comuna Comana|Comuna Comana||45.91357|25.2208|RO
680165|Comuna Cristian|Comuna Cristian||45.62474|25.48292|RO
680110|Comuna Crizbav|Comuna Crizbav||45.8207|25.46739|RO
678888|Comuna Drăguş|Comuna Dragus||45.76146|24.77906|RO
678677|Comuna Dumbrăviţa|Comuna Dumbravita|Comuna Dumbravita,Comuna Dumbrăviţa,Comuna Tintari,Comuna Ţînţari|45.76667|25.43333|RO
678363|Comuna Feldioara|Comuna Feldicara||45.82829|25.57459|RO
677832|Comuna Fundata|Comuna Fundata||45.44615|25.27775|RO
677381|Oraş Ghimbav|Comuna Ghimbav||45.66397|25.50836|RO
676367|Comuna Hălchiu|Comuna Halchiu||45.76743|25.52991|RO
676303|Comuna Hărman|Comuna Harman||45.73727|25.70451|RO
676168|Comuna Hârşeni|Comuna Harseni||45.7342|25.02404|RO
676086|Comuna Hoghiz|Comuna Hoghiz||45.96602|25.32168|RO
676080|Comuna Holbav|Comuna Holbav||45.65922|25.38744|RO
676051|Comuna Homorod|Comuna Homorod||46.0726|25.33464|RO
675265|Comuna Jibert|Comuna Jibert||46.00173|25.07355|RO
674719|Comuna Lisa|Comuna Lisa||45.7276|24.86876|RO
674195|Comuna Mãieruş|Comuna Maierus||45.89358|25.49705|RO
673217|Comuna Mândra|Comuna Mandra|Kladendorf|45.81219|25.03262|RO
672969|Comuna Moieciu|Comuna Moeciu||45.48848|25.30962|RO
671696|Comuna Ormeniş|Comuna Ormenis||46.00473|25.55683|RO
670746|Comuna Pârâu|Comuna Parau|Comuna Parau,Comuna Piriu,Comuna Pîrîu,Comuna Părău|45.85139|25.21584|RO
670055|Comuna Poiana Mărului (Brașov)|Comuna Poiana Marului (Brasov)|Comuna Poiana Marului,Comuna Poiana Mărului,Poiana Marului,Poiana Mărului|45.60462|25.30927|RO
669690|Comuna Prejmer|Comuna Prejmer||45.73164|25.78673|RO
8334946|Comuna Racoş|Comuna Racos||46.02051|25.39563|RO
669040|Comuna Recea|Comuna Recea|Comuna Vaida Recea|45.74312|24.94086|RO
667140|Comuna Sâmbăta de Sus|Comuna Sambata de Sus||45.72698|24.81067|RO
666957|Comuna Sânpetru|Comuna Sanpetru|Barcaszentpeter,Barcaszentpéter,Petersberg,Szentpeterfalva,Szentpéterfalva|45.71082|25.63678|RO
667348|Comuna Şercaia|Comuna Sercaia|Sarkany,Schirkanyen,Sárkány|45.83002|25.14114|RO
667077|Comuna Şinca Nouă|Comuna Sinca Noua||45.69667|25.22177|RO
667075|Comuna Şinca Veche|Comuna Sinca Veche||45.75892|25.15578|RO
666599|Comuna Şoarş|Comuna Soars||45.92871|24.92764|RO
665496|Comuna Tărlungeni|Comuna Tarlungeni||45.64579|25.77368|RO
665270|Comuna Teliu|Comuna Teliu||45.69856|25.8559|RO
665156|Comuna Ticuşu Vechi|Comuna Ticusu Vechi||45.92823|25.09346|RO
664391|Comuna Ucea de Jos|Comuna Ucea de Jos||45.7798|24.68477|RO
664262|Comuna Ungra|Comuna Ungra||45.97828|25.21859|RO
663221|Comuna Vama Buzăului|Comuna Vama Buzaului||45.60258|25.97991|RO
662678|Comuna Viştea de Jos|Comuna Vistea de Jos||45.77201|24.75237|RO
662532|Comuna Voila|Comuna Voila|Voila,Wolldorf|45.81815|24.8406|RO
662427|Comuna Vulcan|Comuna Vulcan||45.6496|25.41671|RO
662282|Oraş Zãrneşti|Comuna Zarnesti||45.5565|25.35205|RO
8334708|Municipiul  Codlea|Municipiul  Codlea||45.69944|25.44778|RO
6691648|Municipiul Braşov|Municipiul Brasov||45.65053|25.60913|RO
8334693|Municipiul Fãgãraş|Municipiul Fagaras||45.84098|24.97348|RO
8334720|Municipiul Sãcele|Municipiul Sacele||45.61772|25.6989|RO
8334974|Oraş Predeal|Oras Predeal||45.49679|25.58778|RO
8334939|Oraş Râşnov|Oras Rasnov||45.59108|25.46393|RO
8334689|Oraş Rupea|Oras Rupea||46.05903|25.18717|RO
8334662|Oraş Victoria|Oras Victoria||45.72968|24.7028|RO
683504|București|Bucuresti|Bucarest,Bucuresti,Bucureşti,Municipiul Bucuresti,Municipiul Bucureşti|44.5|26.08333|RO
8335003|Municipiul Bucureşti|Municipiul Bucuresti||44.432|26.106|RO
11055041|Sector 1|Sector 1||44.49136|26.0602|RO
11055040|Sector 2|Sector 2||44.45816|26.1383|RO
11055044|Sector 3|Sector 3||44.41796|26.16905|RO
11055042|Sector 4|Sector 4||44.38191|26.12273|RO
11055043|Sector 5|Sector 5||44.40217|26.06236|RO
11055039|Sector 6|Sector 6||44.43778|26.01743|RO
683121|Buzău|Buzau|Buzau,Buzău,Judetul Buzau,Judeţul Buzău|45.41667|26.75|RO
686379|Comuna Amaru|Comuna Amaru|Comuna Amaru,Comuna Badeni-Miluiti,Comuna Bădeni-Miluiţi|44.9377|26.59991|RO
685730|Comuna Bălăceanu|Comuna Balaceanu||45.24656|27.13604|RO
685573|Comuna Balta Albă|Comuna Balta Alba||45.26376|27.30558|RO
685222|Comuna Beceni|Comuna Beceni||45.38456|26.76978|RO
685079|Comuna Berca|Comuna Berca||45.30098|26.65989|RO
684682|Comuna Bisoca|Comuna Bisoca||45.5434|26.70591|RO
684609|Comuna Blăjani|Comuna Blajani||45.29964|26.81716|RO
684278|Comuna Boldu|Comuna Boldu||45.32267|27.24313|RO
8334830|Comuna Bozioru|Comuna Bozioru||45.38987|26.4677|RO
683964|Comuna Brădeanu|Comuna Bradeanu||44.89367|26.86105|RO
683918|Comuna Brăeşti|Comuna Braesti||45.44253|26.49487|RO
683754|Comuna Breaza|Comuna Breaza||45.09183|26.5324|RO
683478|Comuna Buda|Comuna Buda||45.50907|26.90434|RO
682678|Comuna C.A. Rosetti|Comuna C.A. Rosetti|Comuna C.A. Roseti,Comuna C.A. Rosetti|45.03678|27.16722|RO
682872|Comuna Calvini|Comuna Calvini||45.24906|26.29982|RO
682843|Comuna Căneşti|Comuna Canesti||45.39711|26.60889|RO
682547|Comuna Cătina|Comuna Catina||45.28747|26.24479|RO
682326|Comuna Cernăteşti|Comuna Cernatesti||45.29838|26.7626|RO
682106|Comuna Chiliile|Comuna Chiliile||45.44784|26.59441|RO
682075|Comuna Chiojdu|Comuna Chiojdu||45.36671|26.2184|RO
681911|Comuna Cilibia|Comuna Cilibia||45.05219|27.04337|RO
681509|Comuna Cislău|Comuna Cislau||45.22578|26.37954|RO
681227|Comuna Cochirleanca|Comuna Cochirleanca||45.20146|27.01126|RO
8334808|Comuna Colţi|Comuna Colti||45.39105|26.40723|RO
680566|Comuna Costeşti|Comuna Costesti||45.06179|26.77321|RO
680403|Comuna Cozieni|Comuna Cozieni||45.3324|26.4941|RO
678029|Comuna Florica|Comuna Florica||44.90802|26.76627|RO
677670|Comuna Gălbinaşi|Comuna Galbinasi||45.07439|26.94363|RO
677451|Comuna Gherăseni|Comuna Gheraseni||45.02443|26.80069|RO
677440|Comuna Ghergheasa|Comuna Ghergheasa||45.28915|27.19182|RO
677048|Comuna Glodeanu-Sărat|Comuna Glodeanu-Sarat||44.87601|26.65897|RO
677046|Comuna Glodeanu-Siliştea|Comuna Glodeanu-Silistea||44.83956|26.76757|RO
676777|Comuna Greabănu|Comuna Greabanu|Comuna Greabanu,Comuna Greabănu,Comuna Grebanu,Comuna Grebănu|45.38794|26.96628|RO
676477|Comuna Gura Teghii|Comuna Gura Teghii||45.50703|26.43441|RO
675015|Comuna Largu|Comuna Largu||44.97448|27.16261|RO
674605|Comuna Lopătari|Comuna Lopatari||45.48774|26.55233|RO
674554|Comuna Luciu|Comuna Luciu||44.9751|27.05781|RO
674131|Comuna Măgura|Comuna Magura||45.26962|26.55104|RO
673174|Comuna Mânzăleşti|Comuna Manzalesti||45.50414|26.64561|RO
673891|Comuna Mărăcineni|Comuna Maracineni||45.18902|26.79393|RO
673823|Comuna Mărgăriteşti|Comuna Margaritesti||45.43496|26.83619|RO
673584|Comuna Merei|Comuna Merei||45.13102|26.66127|RO
673384|Comuna Mihăileşti|Comuna Mihailesti||44.92518|26.6733|RO
672745|Comuna Movila Banului|Comuna Movila Banului||44.97607|26.70299|RO
672607|Comuna Murgeşti|Comuna Murgesti||45.40612|26.88883|RO
672539|Comuna Năeni|Comuna Naeni||45.09968|26.48944|RO
672330|Oraş Nehoiu|Comuna Nehoiu||45.41538|26.32089|RO
671982|Comuna Odăile|Comuna Odaile||45.38458|26.53966|RO
671553|Comuna Padina|Comuna Padina||44.87082|27.11566|RO
671405|Comuna Pănătău|Comuna Panatau||45.30516|26.39159|RO
671343|Comuna Pardoşi|Comuna Pardosi||45.44989|26.87934|RO
670685|Comuna Pârscov|Comuna Parscov||45.3076|26.55283|RO
671270|Oraş Pãtârlagele|Comuna Patarlagele||45.32035|26.34539|RO
670825|Comuna Pietroasele|Comuna Pietroasele||45.10357|26.59143|RO
8334780|Comuna Podgoria|Comuna Podgoria||45.45591|27.00626|RO
670165|Oraş Pogoanele|Comuna Pogoanele||44.90555|27.01183|RO
8334964|Comuna Poşta Câlnãu|Comuna Posta Calnau||45.24683|26.86785|RO
669510|Comuna Puieşti|Comuna Puesti||45.39338|27.2085|RO
669307|Comuna Racoviţeni|Comuna Racoviteni||45.35025|26.89919|RO
668880|Comuna Râmnicelu|Comuna Ramnicelu|Comuna Obiditi,Comuna Obidiţi,Comuna Rimnicelu,Comuna Rîmnicelu|45.3784|27.13293|RO
668787|Comuna Robeasca|Comuna Robeasca||45.14246|27.14697|RO
668393|Comuna Ruşeţu|Comuna Rusetu||44.94214|27.21863|RO
668265|Comuna Săgeata|Comuna Sageata||45.10063|27.02496|RO
668256|Comuna Săhăteni|Comuna Sahateni||45.02238|26.56344|RO
668072|Comuna Săpoca|Comuna Sapoca||45.2229|26.75175|RO
667946|Comuna Săruleşti|Comuna Sarulesti||45.48304|26.77864|RO
667581|Comuna Scorţoasa|Comuna Scortoasa||45.36204|26.66176|RO
667547|Comuna Scutelnici|Comuna Scutelnici||44.83964|26.93747|RO
666812|Comuna Siriu|Comuna Siriu||45.50872|26.2447|RO
666640|Comuna Smeeni|Comuna Smeeni||44.98816|26.91261|RO
666145|Comuna Stâlpu|Comuna Stalpu||45.08519|26.70839|RO
665049|Comuna Ţinteşti|Comuna Tintesti||45.0728|26.85786|RO
8334878|Comuna Tisãu|Comuna Tisau||45.19337|26.57321|RO
664754|Comuna Topliceni|Comuna Topliceni||45.44104|26.9821|RO
664308|Comuna Ulmeni|Comuna Ulmeni||45.06881|26.62364|RO
664209|Comuna Unguriu|Comuna Unguriu||45.27963|26.64103|RO
663995|Comuna Vadu Paşii|Comuna Vadu Pasii||45.15743|26.88249|RO
662864|Comuna Vâlcelele|Comuna Valcelele||45.3443|27.34937|RO
8334971|Comuna Valea Râmnicului|Comuna Valea Ramnicului||45.36174|27.04675|RO
663452|Comuna Valea Sălciei|Comuna Valea Salciei||45.48818|26.82912|RO
663034|Comuna Verneşti|Comuna Vernesti||45.20804|26.6965|RO
662800|Comuna Vintilă Vodă|Comuna Vintila Voda||45.45461|26.72385|RO
662786|Comuna Vipereşti|Comuna Viperesti||45.24643|26.44527|RO
662281|Comuna Zărneşti|Comuna Zarnesti||45.30951|26.881|RO
662203|Comuna Ziduri|Comuna Ziduri||45.28211|27.05974|RO
683120|Municipiul Buzău|Municipiul Buzau||45.15046|26.82136|RO
8334994|Municipiul Râmnicu Sãrat|Municipiul Ramnicu Sarat||45.38324|27.05162|RO
683016|Călăraşi|Calarasi|Calarasi,Călăraşi,Judetul Calarasi,Judeţul Călăraşi|44.25|27.0|RO
8334811|Comuna Alexandru Odobescu|Comuna Alexandru Odobescu||44.27254|27.09402|RO
685154|Comuna Belciugatele|Comuna Belciugatele||44.5116|26.44556|RO
8334843|Comuna Borcea|Comuna Borcea||44.32356|27.71808|RO
683432|Oraş Budeşti|Comuna Budesti||44.24766|26.45099|RO
682616|Comuna Căscioarele|Comuna Cascioarele||44.12731|26.4696|RO
682034|Comuna Chirnogi|Comuna Chirnogi||44.11064|26.57747|RO
682013|Comuna Chiselet|Comuna Chiselet||44.16868|26.85603|RO
681741|Comuna Ciocăneşti|Comuna Ciocanesti||44.19701|27.0653|RO
680132|Comuna Crivăţ|Comuna Crivat||44.19338|26.43846|RO
679935|Comuna Curcani|Comuna Curcani||44.20208|26.57632|RO
679848|Comuna Cuza Vodă|Comuna Cuza Voda||44.2673|27.27113|RO
679427|Comuna Dichiseni|Comuna Dichiseni||44.23056|27.53466|RO
679094|Comuna Dor Mărunt|Comuna Dor Marunt||44.44116|26.99417|RO
679070|Comuna Dorobanţu|Comuna Dorobantu||44.22324|26.95219|RO
679008|Comuna Dragalina|Comuna Dragalina|Comuna Dragalina|44.44479|27.37537|RO
678907|Comuna Dragoş Vodă|Comuna Dragos Voda||44.44836|27.15382|RO
677948|Comuna Frăsinet|Comuna Frasinet||44.30798|26.82463|RO
677879|Comuna Frumuşani|Comuna Frumusani||44.31716|26.30967|RO
677806|Comuna Fundeni|Comuna Fundeni||44.38325|26.34968|RO
677789|Oraş Fundulea|Comuna Fundulea||44.46456|26.49901|RO
677671|Comuna Gălbinaşi|Comuna Galbinasi||44.31724|26.41941|RO
676811|Comuna Grădiştea|Comuna Gradistea|Comuna Cacomeanca,Comuna Gradistea,Comuna Grădiştea|44.21945|27.1616|RO
676446|Comuna Gurbăneşti|Comuna Gurbanesti||44.3754|26.69277|RO
675681|Comuna Ileana|Comuna Ileana||44.52732|26.68993|RO
675610|Comuna Independenţa|Comuna Independenta||44.27922|27.16053|RO
675284|Comuna Jegălia|Comuna Jegalia||44.29436|27.64286|RO
674917|Comuna Lehliu|Comuna Lehliu||44.48828|26.82729|RO
674525|Comuna Luica|Comuna Luica||44.24126|26.60071|RO
674266|Comuna Lupşanu|Comuna Lupsanu||44.38075|26.94842|RO
673263|Comuna Mânăstirea|Comuna Manastirea||44.23953|26.8794|RO
673047|Comuna Mitreni|Comuna Mitreni||44.16339|26.61454|RO
672976|Comuna Modelu|Comuna Modelu||44.19661|27.3896|RO
672522|Comuna Nana|Comuna Nana||44.26771|26.59199|RO
672269|Comuna Nicolae Bălcescu|Comuna Nicolae Balcescu||44.44506|26.75839|RO
671107|Comuna Perişoru|Comuna Perisoru||44.43266|27.50197|RO
670551|Comuna Plătăreşti|Comuna Plataresti||44.34476|26.38255|RO
669242|Comuna Radovanu|Comuna Radovanu||44.17671|26.53259|RO
668659|Comuna Roseţi|Comuna Roseti||44.21435|27.45085|RO
667947|Comuna Săruleşti|Comuna Sarulesti||44.41289|26.61657|RO
666560|Comuna Sohatu|Comuna Sohatu||44.35549|26.52161|RO
666503|Comuna Şoldanu|Comuna Soldanu||44.22675|26.51224|RO
666384|Comuna Spanţov|Comuna Spantov||44.1311|26.78896|RO
8334637|Comuna Ştefan Cel Mare|Comuna Stefan Cel Mare||44.42593|27.63963|RO
666213|Comuna Ştefan Vodă|Comuna Stefan Voda||44.33097|27.32505|RO
8334664|Comuna Tãmãdãu Mare|Comuna Tamadau Mare||44.45951|26.57622|RO
664309|Comuna Ulmeni|Comuna Ulmeni||44.14587|26.72793|RO
664285|Comuna Ulmu|Comuna Ulmu||44.28725|26.91814|RO
664197|Comuna Unirea|Comuna Unirea|Comuna Socariciu,Comuna Unirea,Comuna Şocariciu|44.25119|27.58278|RO
8334735|Comuna Vâlcelele|Comuna Valcelele||44.37457|27.16661|RO
8334666|Comuna Valea Argovei|Comuna Valea Argovei||44.34829|26.7818|RO
663126|Comuna Vasilaţi|Comuna Vasilati||44.29143|26.42151|RO
662581|Comuna Vlad Ţepeş|Comuna Vlad Tepes||44.34482|27.08505|RO
683022|Municipiul Călăraşi|Municipiul Calarasi||44.2|27.33333|RO
8334824|Municipiul Olteniţa|Municipiul Oltenita||44.09204|26.64183|RO
8334885|Oraş Lehliu Garã|Oras Lehliu Gara||44.42178|26.86167|RO
682714|Caraş-Severin|Caras-Severin|Caras-Severin,Caraş-Severin,Judetul Caras-Severin,Judeţul Caraş-Severin|45.08333|22.08333|RO
686135|Comuna Armeniş|Comuna Armenis||45.21901|22.35198|RO
685456|Comuna Bănia|Comuna Bania||44.872|22.02747|RO
685244|Comuna Băuţar|Comuna Bautar||45.53016|22.57848|RO
8334921|Comuna Berlişte|Comuna Berliste||44.99004|21.4692|RO
684974|Comuna Berzasca|Comuna Berzasca||44.64845|21.9858|RO
684971|Comuna Berzovia|Comuna Berzovia||45.40777|21.60233|RO
684250|Comuna Bolvaşniţa|Comuna Bolvasnita||45.33634|22.3311|RO
683984|Comuna Bozovici|Comuna Bozovici||44.97815|21.97965|RO
683728|Comuna Brebu|Comuna Brebu||45.40358|22.01842|RO
683723|Comuna Brebu Nou|Comuna Brebu Nou||45.23062|22.11809|RO
683587|Comuna Buchin|Comuna Buchin||45.34756|22.20877|RO
683549|Comuna Bucoşniţa|Comuna Bucosnita||45.30652|22.26856|RO
682715|Comuna Caraşova|Comuna Carasova||45.21545|21.88149|RO
682696|Comuna Cărbunari|Comuna Carbunari||44.83985|21.74178|RO
681937|Comuna Ciclova Română|Comuna Ciclova Romana||44.97477|21.71425|RO
681482|Comuna Ciuchici|Comuna Ciuchici||44.93914|21.61419|RO
681469|Comuna Ciudanoviţa|Comuna Ciudanovita||45.15308|21.75402|RO
680960|Comuna Constantin Daicoviciu|Comuna Constantin Daicoviciu|Comuna Cavaran,Comuna Constantin Daicoviciu,Comuna Căvăran|45.51458|22.16374|RO
680933|Comuna Copăcele|Comuna Copacele||45.48036|22.0872|RO
680789|Comuna Cornea|Comuna Cornea||45.01953|22.31903|RO
680785|Comuna Cornereva|Comuna Cornereva||45.06968|22.44671|RO
679805|Comuna Dalboşeţ|Comuna Dalboset||44.84425|21.93495|RO
679179|Comuna Doclin|Comuna Doclin||45.3237|21.64622|RO
679159|Comuna Dognecea|Comuna Dognecea||45.24797|21.72574|RO
679122|Comuna Domaşnea|Comuna Domasnea||45.07577|22.33693|RO
8334695|Comuna Eftimie Murgu|Comuna Eftimie Murgu||44.87744|22.09522|RO
678518|Comuna Ezeriş|Comuna Ezeris||45.38982|21.91754|RO
678119|Comuna Fârliug|Comuna Farliug||45.50025|21.85355|RO
677975|Comuna Forotic|Comuna Forotic||45.23159|21.5789|RO
677164|Comuna Gârnic|Comuna Garnic||44.75521|21.77168|RO
677070|Comuna Glimboca|Comuna Glimboca||45.49499|22.32194|RO
8334889|Comuna Goruia|Comuna Goruia||45.18298|21.77054|RO
676827|Comuna Grădinari|Comuna Gradinari||45.10488|21.60576|RO
675871|Comuna Iablaniţa|Comuna Iablanita||44.9748|22.2918|RO
675034|Comuna Lăpuşnicel|Comuna Lapusnicel||44.98679|22.2071|RO
675032|Comuna Lăpuşnicu Mare|Comuna Lapusnicu Mare||44.88519|21.93321|RO
674348|Comuna Luncaviţa|Comuna Luncavita||45.0852|22.25352|RO
674303|Comuna Lupac|Comuna Lupac||45.25215|21.80835|RO
673828|Comuna Marga|Comuna Marga||45.51489|22.51537|RO
673659|Comuna Măureni|Comuna Maureni||45.4317|21.51348|RO
673618|Comuna Mehadia|Comuna Mehadia||44.95509|22.37181|RO
673615|Comuna Mehadica|Comuna Mehadica||45.03894|22.26476|RO
672537|Comuna Naidaş|Comuna Naidas||44.87584|21.56807|RO
672048|Comuna Obreja|Comuna Obreja||45.46873|22.2557|RO
8334882|Comuna Ocna De Fier|Comuna Ocna De Fier||45.34195|21.77503|RO
671602|Oraş Oţelu Roşu|Comuna Otelu Rosu||45.51638|22.38135|RO
8334873|Comuna Pãltiniş|Comuna Paltinis||45.40607|22.11233|RO
671083|Comuna Pescari|Comuna Pescari|Comuna Coronini,Comuna Pescari|44.67286|21.70092|RO
669978|Comuna Pojejena|Comuna Pojejena||44.78437|21.53365|RO
669645|Comuna Prigor|Comuna Prigor||44.94774|22.12896|RO
669397|Comuna Răcăşdia|Comuna Racasdia|Comuna Racajdia,Comuna Racasdia,Comuna Răcăjdia,Comuna Răcăşdia|44.99767|21.58786|RO
669191|Comuna Ramna|Comuna Ramna||45.4653|21.72257|RO
668416|Comuna Rusca Montană|Comuna Rusca Montana||45.60042|22.43638|RO
668299|Comuna Sacu|Comuna Sacu||45.57152|22.11048|RO
667926|Comuna Sasca Montană|Comuna Sasca Montana||44.90394|21.70167|RO
667255|Comuna Sicheviţa|Comuna Sichevita||44.70616|21.8291|RO
666758|Comuna Slatina-Timiş|Comuna Slatina-Timis||45.26064|22.31807|RO
666579|Comuna Socol|Comuna Socol||44.85334|21.41782|RO
666432|Comuna Şopotu Nou|Comuna Sopotu Nou||44.7965|21.85135|RO
664956|Comuna Târnova|Comuna Tarnova||45.33274|21.96849|RO
665233|Comuna Teregova|Comuna Teregova||45.14536|22.31192|RO
665154|Comuna Ticvaniu Mare|Comuna Ticvaniu Mare||45.15901|21.65596|RO
664758|Comuna Topleţ|Comuna Toplet||44.80454|22.39102|RO
664433|Comuna Turnu Rueni|Comuna Turnu Rueni|Comuna Turnu Rueni,Comuna Turnu Ruieni|45.39767|22.31756|RO
663236|Comuna Văliug|Comuna Valiug||45.22643|22.03169|RO
663206|Comuna Vărădia|Comuna Varadia||45.07166|21.54036|RO
663039|Comuna Vermeş|Comuna Vermes||45.52216|21.62988|RO
662444|Comuna Vrani|Comuna Vrani||45.02799|21.48549|RO
662251|Comuna Zăvoi|Comuna Zavoi|Comuna Crijma,Comuna Crîjma,Comuna Zavoi,Comuna Zăvoi|45.49706|22.44346|RO
662127|Comuna Zorlenţu Mare|Comuna Zorlentu Mare||45.46419|21.98155|RO
8334729|Municipiul Caransebeş|Municipiul Caransebes||45.43476|22.20358|RO
8334917|Municipiul Reşiţa|Municipiul Resita||45.29838|21.91192|RO
8334763|Oraş Anina|Oras Anina||45.07683|21.85213|RO
8334866|Oraş Bãile Herculane|Oras Baile Herculane||44.87326|22.41613|RO
8334834|Oraş Bocşa|Oras Bocsa||45.3757|21.71483|RO
8334912|Oraş Moldova Nouã|Oras Moldova Noua||44.75053|21.65493|RO
8334697|Oraş Oraviţa|Oras Oravita||45.05918|21.70739|RO
681291|Cluj|Cluj|Cluj,Klausenburg,Kolozs,Kolozs megye,Kreis Klausenburg|46.64944|23.81836|RO
686628|Comuna Aghireşu|Comuna Aghiresu||46.87785|23.2532|RO
686591|Comuna Aiton|Comuna Aiton||46.68275|23.71608|RO
686415|Comuna Aluniş|Comuna Alunis||47.05595|23.74365|RO
686287|Comuna Apahida|Comuna Apahida||46.78296|23.74433|RO
686085|Comuna Aşchileu|Comuna Aschileu|Comuna Aschilei,Comuna Aschileu,Comuna Aşchilei,Comuna Aşchileu|46.98498|23.48468|RO
685924|Comuna Baciu|Comuna Baciu||46.8201|23.49036|RO
685772|Comuna Băişoara|Comuna Baisoara||46.58331|23.39349|RO
685130|Comuna Beliş|Comuna Belis||46.65246|22.95213|RO
684530|Comuna Bobâlna|Comuna Bobalna|Comuna Bobilna,Comuna Bobîlna,Comuna Olpret|47.13319|23.65163|RO
684239|Comuna Bonţida|Comuna Bontida||46.90036|23.82228|RO
684153|Comuna Borşa|Comuna Borsa||46.92402|23.6494|RO
683128|Comuna Buza|Comuna Buza||46.90492|24.18041|RO
683054|Comuna Căianu|Comuna Caianu||46.8067|23.90883|RO
683018|Comuna Călăraşi|Comuna Calarasi||46.49376|23.85359|RO
683003|Comuna Călăţele|Comuna Calatele||46.76282|23.03046|RO
682865|Comuna Cămăraşu|Comuna Camarasu||46.78695|24.11369|RO
8334749|Comuna Cãpuşu Mare|Comuna Capusu Mare||46.78746|23.23462|RO
682613|Comuna Căşeiu|Comuna Caseiu||47.2381|23.86404|RO
681495|Comuna Câţcău|Comuna Catcau||47.23058|23.79331|RO
682546|Comuna Cătina|Comuna Catina||46.85179|24.16497|RO
682472|Comuna Ceanu Mare|Comuna Ceanu Mare||46.65324|23.94586|RO
682091|Comuna Chinteni|Comuna Chinteni||46.88822|23.55319|RO
681980|Comuna Chiuieşti|Comuna Chiuesti||47.32292|23.92016|RO
681485|Comuna Ciucea|Comuna Ciucea||46.95981|22.84363|RO
681369|Comuna Ciurila|Comuna Ciurila||46.63372|23.53979|RO
681139|Comuna Cojocna|Comuna Cojocna||46.72137|23.83949|RO
680764|Comuna Corneşti|Comuna Cornesti||47.02811|23.685|RO
679885|Comuna Cuzdrioara|Comuna Cusdrioara||47.18274|23.93248|RO
679843|Comuna Dăbâca|Comuna Dabaca||46.96989|23.69456|RO
678354|Comuna Feleacu|Comuna Feleacu||46.70345|23.64021|RO
678088|Comuna Fizeşu Gherlii|Comuna Fizesu Gherlii||46.99442|23.94727|RO
678040|Comuna Floreşti|Comuna Floresti||46.73375|23.47861|RO
677924|Comuna Frata|Comuna Frata||46.69878|24.05385|RO
8334943|Comuna Gârbãu|Comuna Garbau||46.84059|23.37049|RO
677552|Comuna Geaca|Comuna Geaca||46.88141|24.06256|RO
677282|Comuna Gilău|Comuna Gilau||46.72607|23.34909|RO
675936|Oraş Huedin|Comuna Huedin|Banffyhunyad,Bánffyhunyad|46.87204|23.03935|RO
675815|Comuna Iara|Comuna Iara||46.54268|23.52749|RO
675762|Comuna Iclod|Comuna Iclod||46.99174|23.81618|RO
675328|Comuna Izvoru Crişului|Comuna Izvoru Crisului||46.84542|23.10025|RO
8334887|Comuna Jichişu De Jos|Comuna Jichisu De Jos||47.12028|23.76788|RO
675166|Comuna Jucu|Comuna Jucu||46.84958|23.80953|RO
674500|Comuna Luna|Comuna Luna|Comuna Luna,Comuna Luna de Aries,Comuna Luna de Arieş|46.47522|23.94928|RO
8334989|Comuna Mãguri-Rãcãtãu|Comuna Maguri-Racatau||46.63948|23.19485|RO
673228|Comuna Mânăstireni|Comuna Manastireni||46.79131|23.09871|RO
673820|Comuna Mărgău|Comuna Margau||46.75677|22.94429|RO
673772|Comuna Mărişel|Comuna Marisel|Comuna Marisel,Comuna Mariselu,Comuna Mărişel,Comuna Mărişelu|46.68422|23.11466|RO
673487|Comuna Mica|Comuna Mica||47.14436|23.97593|RO
673362|Comuna Mihai Viteazu|Comuna Mihai Viteazu||46.53477|23.71595|RO
673176|Comuna Mintiu Gherlii|Comuna Mintiu Gherlii|Comuna Minitiu Gherlii,Comuna Miniţiu Gherlii,Comuna Mintiu Gherlii|47.07323|23.92731|RO
672982|Comuna Mociu|Comuna Mociu||46.79232|24.02853|RO
672904|Comuna Moldoveneşti|Comuna Moldovenesti||46.4735|23.68905|RO
672384|Comuna Negreni|Comuna Negreni||46.95224|22.75835|RO
8334773|Comuna Pãlatca|Comuna Palatca||46.87358|23.98288|RO
671373|Comuna Panticeu|Comuna Panticeu|Comuna Panticeu,Comuna Pinticea,Comuna Pînticea|47.04079|23.55639|RO
8334694|Comuna Petreştii De Jos|Comuna Petrestii De Jos||46.58162|23.62191|RO
670403|Comuna Ploscoş|Comuna Ploscos||46.66066|23.84322|RO
670210|Comuna Poieni|Comuna Poeni||46.88361|22.86041|RO
668836|Comuna Râșca|Comuna Rasca||46.73082|23.15413|RO
669036|Comuna Recea Cristur|Comuna Recea Cristur||47.12155|23.54554|RO
668291|Comuna Sãcuieu|Comuna Sacueu||46.816|22.8601|RO
667062|Comuna Sâncraiu|Comuna Sancraiu||46.8341|22.99135|RO
668100|Comuna Sănduleşti|Comuna Sandulesti||46.58887|23.73049|RO
667000|Comuna Sânmărtin|Comuna Sanmartin||47.00708|24.07336|RO
666960|Comuna Sânpaul|Comuna Sanpaul||46.89597|23.41731|RO
667762|Comuna Săvădisla|Comuna Savadisla||46.6654|23.44808|RO
667261|Comuna Sic|Comuna Sic||46.93134|23.89615|RO
665878|Comuna Suatu|Comuna Suatu||46.75372|23.9582|RO
665627|Comuna Ţaga|Comuna Taga||46.951|24.02605|RO
8334874|Comuna Tritenii De Jos|Comuna Tritenii De Jos||46.58735|24.00139|RO
664453|Municipiul Turda|Comuna Turea||46.57456|23.78574|RO
664450|Comuna Tureni|Comuna Tureni||46.63917|23.67684|RO
664259|Comuna Unguraş|Comuna Unguras||47.11667|24.05|RO
664027|Comuna Vad|Comuna Vad||47.20634|23.71403|RO
663729|Comuna Valea Ierii|Comuna Valea Ierii||46.64086|23.31997|RO
662908|Comuna Viişoara|Comuna Viisoara||46.55377|23.93583|RO
662398|Comuna Vultureni|Comuna Vultureni||46.95597|23.56762|RO
8334997|Municipiul Câmpia Turzii|Municipiul Campia Turzii||46.54417|23.88472|RO
8334955|Municipiul Cluj-Napoca|Municipiul Cluj-Napoca||46.77791|23.60512|RO
8334696|Municipiul Dej|Municipiul Dej||47.12783|23.87504|RO
8334891|Municipiul Gherla|Municipiul Gherla||47.01431|23.88134|RO
680962|Constanța|Constanta|Constanta,Constanța,Judetul Constanta,Judeţul Constanţa,Județul Constanța|44.25|28.33333|RO
679030|Comuna 23 August|Comuna 23 August||43.91938|28.55437|RO
686687|Comuna Adamclisi|Comuna Adamclisi||44.11447|27.9499|RO
686625|Comuna Agigea|Comuna Agigea||44.09654|28.62684|RO
686554|Comuna Albeşti|Comuna Albesti||43.80863|28.40325|RO
686475|Comuna Aliman|Comuna Aliman||44.1843|27.83697|RO
8334892|Comuna Amzacea|Comuna Amzacea||43.95983|28.32122|RO
685471|Oraş Bãneasa|Comuna Baneasa||44.05008|27.7143|RO
685432|Comuna Bărăganu|Comuna Baraganu||44.07931|28.39887|RO
682588|Comuna Castelu|Comuna Castelu||44.25846|28.36908|RO
682368|Comuna Cerchezu|Comuna Cerchezu||43.84984|28.08444|RO
682037|Comuna Chirnogeni|Comuna Chirnogeni||43.94216|28.22195|RO
681774|Comuna Ciobanu|Comuna Ciobanu||44.71771|27.98904|RO
681717|Comuna Ciocârlia|Comuna Ciocarlia||44.11098|28.31161|RO
681256|Comuna Cobadin|Comuna Cobadin||44.02574|28.16695|RO
681159|Comuna Cogealac|Comuna Cogealac||44.57661|28.52244|RO
681034|Comuna Comana|Comuna Comana||43.89963|28.35491|RO
680858|Comuna Corbu|Comuna Corbu||44.40319|28.67797|RO
8334814|Comuna Costineşti|Comuna Costinesti||43.9478|28.63284|RO
680088|Comuna Crucea|Comuna Crucea||44.55046|28.20592|RO
679965|Comuna Cumpăna|Comuna Cumpana||44.10747|28.51226|RO
8334991|Comuna Cuza Voda|Comuna Cuza Voda||44.28773|28.31005|RO
679515|Comuna Deleni|Comuna Deleni||44.06175|28.02263|RO
679216|Comună Dobromir|Comuna Dobromir|Comuna Dobromir,Comuna Dobromiru din Vale,Comună Dobromir|44.01813|27.83888|RO
678698|Comuna Dumbrăveni|Comuna Dumbraveni||43.93127|27.99112|RO
678146|Comuna Fântânele|Comuna Fantanele||44.61278|28.57655|RO
677174|Comuna Gârliciu|Comuna Garliciu||44.77933|28.09461|RO
677359|Comuna Ghindăreşti|Comuna Ghindaresti||44.6352|28.03193|RO
676834|Comuna Grădina|Comuna Gradina||44.52298|28.44846|RO
676006|Comuna Horia|Comuna Horia||44.63551|28.12034|RO
675611|Comuna Independenţa|Comuna Independenta||43.9602|28.0629|RO
675555|Comuna Ion Corvin|Comuna Ion Corvin||44.10717|27.80268|RO
675470|Comuna Istria|Comuna Istria||44.55487|28.68155|RO
674781|Comuna Limanu|Comuna Limanu||43.78024|28.53931|RO
674734|Comuna Lipniţa|Comuna Lipnita||44.09073|27.56683|RO
8334751|Comuna Lumina|Comuna Lumina||44.32756|28.54709|RO
673576|Comuna Mereni|Comuna Mereni||44.01545|28.33559|RO
673363|Comuna Mihai Viteazu|Comuna Mihai Viteazu||44.63727|28.7046|RO
673373|Comuna Mihail Kogălniceanu|Comuna Mihail Kogalniceanu||44.40479|28.51919|RO
673149|Comuna Mircea Vodă|Comuna Mircea Voda||44.30137|28.18647|RO
672485|Oraş Nãvodari|Comuna Navodari||44.30511|28.61407|RO
672342|Oraş Negru Vodã|Comuna Negru Voda||43.79534|28.28041|RO
672270|Comuna Nicolae Bălcescu|Comuna Nicolae Balcescu||44.39829|28.35323|RO
671822|Comuna Oltina|Comuna Oltina||44.13879|27.64881|RO
671631|Comuna Ostrov|Comuna Ostrov||44.08152|27.42046|RO
671583|Oraş Ovidiu|Comuna Ovidiu|Comuna Ovidiu,Comuna Ovodiu|44.23828|28.5321|RO
671379|Comuna Pantelimon|Comuna Pantelimon||44.60047|28.36014|RO
671183|Comuna Pecineaga|Comuna Pecineaga||43.88676|28.51012|RO
671063|Comuna Peştera|Comuna Pestera||44.18951|28.10722|RO
670375|Comuna Poarta Albă|Comuna Poarta Alba||44.21622|28.41904|RO
669145|Comuna Rasova|Comuna Rasova||44.25918|27.96962|RO
668313|Comuna Săcele|Comuna Sacele||44.48866|28.66382|RO
668156|Comuna Saligny|Comuna Saligny||44.28318|28.08929|RO
668061|Comuna Saraiu|Comuna Saraiu||44.71747|28.14732|RO
667440|Comuna Seimeni|Comuna Seimeni||44.40184|28.08756|RO
667176|Comuna Siliştea|Comuna Silistea||44.42359|28.20967|RO
664994|Comuna Târguşor|Comuna Targusor||44.47713|28.38821|RO
664773|Comuna Topalu|Comuna Topalu||44.52116|28.07081|RO
664721|Comuna Topraisar|Comuna Topraisar||44.03126|28.48845|RO
664707|Comuna Tortoman|Comuna Tortoman||44.34569|28.26562|RO
664395|Comuna Tuzla|Comuna Tuzla|Comuna Tuzla,Comuna Tuzlea|44.00158|28.63874|RO
663233|Comuna Valu lui Traian|Comuna Valu lui Traian||44.16386|28.46526|RO
662385|Comuna Vulturu|Comuna Vulturu|Kartal|44.64806|28.27294|RO
8334667|Municipiul Constanţa|Municipiul Constanta||44.21414|28.61862|RO
8334941|Municipiul Mangalia|Municipiul Mangalia||43.85085|28.5978|RO
8334740|Municipiul Medgidia|Municipiul Medgidia||44.22795|28.26801|RO
8334733|Oraş Cernavodã|Oras Cernavoda||44.34331|28.03694|RO
8334674|Oraş Eforie|Oras Eforie||44.04431|28.64529|RO
8334909|Oraş Hârşova|Oras Harsova||44.68721|27.94785|RO
8334675|Oraş Murfatlar|Oras Murfatlar||44.1709|28.38185|RO
8334676|Oraş Techirghiol|Oras Techirghiol||44.05497|28.59539|RO
680428|Covasna|Covasna|Covasna,Judetul Covasna,Judeţul Covasna,Județul Covasna|45.91667|26.0|RO
686596|Comuna Aita Mare|Comuna Aita Mare||45.97126|25.58824|RO
686217|Comuna Arcuş|Comuna Arcus||45.90077|25.77673|RO
685417|Oraş Baraolt|Comuna Baraolt||46.0625|25.60505|RO
685348|Comuna Barcani|Comuna Barcani||45.70483|26.06393|RO
685282|Comuna Băţani|Comuna Batani|Comuna Batani,Comuna Băţani|46.09167|25.7193|RO
685136|Comuna Belin|Comuna Belin||45.93361|25.59126|RO
8334794|Comuna Bixad|Comuna Bixad||46.10225|25.86344|RO
684451|Comuna Bodoc|Comuna Bodoc||45.9619|25.84149|RO
684169|Comuna Boroşneu Mare|Comuna Borosneu Mare||45.8101|26.01568|RO
683923|Comuna Brăduţ|Comuna Bradut|Comuna Bradut,Comuna Braduti,Comuna Brăduţ,Comuna Brăduţi|46.12574|25.60329|RO
683824|Comuna Brateş|Comuna Brates||45.83992|26.07887|RO
683715|Comuna Breţcu|Comuna Bretcu||46.04444|26.32887|RO
682576|Comuna Catalina|Comuna Catalina||45.93736|26.1225|RO
682330|Comună Cernat|Comuna Cernat||45.9665|26.01955|RO
682146|Comuna Chichiş|Comuna Chichis||45.76781|25.81378|RO
681024|Comuna Comandău|Comuna Comandau||45.76179|26.27776|RO
679797|Comuna Dalnic|Comuna Dalnic||45.92242|25.98741|RO
679276|Comuna Dobârlău|Comuna Dobarlau||45.7341|25.88112|RO
678524|Comuna Estelnic|Comuna Estelnic||46.12537|26.20544|RO
677477|Comuna Ghelinţa|Comuna Ghelinta|Comuna Gelence,Comuna Ghelinta,Comuna Ghelinţa,Comuna Ghelnita,Comuna Ghelniţa|45.93491|26.22068|RO
677409|Comuna Ghidfalău|Comuna Ghidfalau||45.89956|25.86399|RO
676395|Comuna Hăghig|Comuna Haghig||45.85362|25.59501|RO
675662|Comuna Ilieni|Comuna Ilieni||45.80054|25.76436|RO
675584|Oraş Întorsura Buzãului|Comuna Intorsura Buzaului||45.68539|26.0126|RO
674897|Comuna Lemnia|Comuna Lemnia||46.07078|26.27277|RO
674005|Comuna Malnaş|Comuna Malnas||46.01995|25.82705|RO
673574|Comuna Mereni|Comuna Mereni||46.08496|26.2346|RO
673471|Comuna Micfalău|Comuna Micfalau||46.05342|25.83737|RO
673020|Comuna Moacşa|Comuna Moacsa||45.87883|25.9527|RO
671888|Comuna Ojdula|Comuna Ojdula||45.97871|26.24773|RO
671579|Comuna Ozun|Comuna Ozun||45.78331|25.8826|RO
670161|Comuna Poian|Comuna Poian|Comuna Poian,Comuna Poiana|46.07731|26.17423|RO
669028|Comuna Reci|Comuna Reci||45.81913|25.95552|RO
666886|Comuna Sânzieni|Comuna Sanzieni||46.06458|26.1179|RO
666789|Comuna Sita Buzăului|Comuna Sita Buzaului||45.61959|26.10621|RO
664445|Comuna Turia|Comuna Turia||46.02927|26.03953|RO
662880|Comuna Vâlcele|Comuna Valcele||45.81736|25.67925|RO
663810|Comuna Valea Crişului|Comuna Valea Crisului||45.92372|25.78483|RO
663603|Comuna Valea Mare|Comuna Valea Mare||45.76389|26.01435|RO
662765|Comuna Vârghiş|Comuna Varghis||46.12737|25.55901|RO
662371|Comuna Zăbala|Comuna Zabala|Zabola|45.89141|26.13251|RO
662350|Comuna Zagon|Comuna Zagon|Zagon,Zágon|45.77961|26.12897|RO
8334792|Municipiul Sfântu Gheorghe|Municipiul Sfantu Gheorghe||45.83806|25.7973|RO
8334842|Municipiul Târgu Secuiesc|Municipiul Targu Secuiesc||46.00589|26.17155|RO
8334818|Oraş Covasna|Oras Covasna||45.83527|26.16637|RO
679385|Dâmboviţa|Dambovita|Dambovita,Dâmboviţa,Judetul Dambovita,Judetul Dimbovita,Judeţul Dâmboviţa,Judeţul Dîmboviţa|44.91667|25.5|RO
686308|Comuna Aninoasa|Comuna Aninoasa||44.96863|25.43802|RO
685629|Comuna Băleni Sârbi|Comuna Baleni Sarbi||44.82017|25.64756|RO
685365|Comuna Bărbuleţu|Comuna Barbuletu||45.14196|25.29771|RO
684946|Comuna Bezdead|Comuna Bezdead||45.13705|25.49476|RO
684859|Comuna Bilciureşti|Comuna Bilciuresti||44.7477|25.80621|RO
683876|Comuna Brăneşti|Comuna Branesti||45.0343|25.42253|RO
683854|Comuna Braniştea|Comuna Branistea||44.68134|25.58387|RO
683696|Comuna Brezoaele|Comuna Brezoaiele||44.56647|25.76664|RO
683564|Comuna Buciumeni|Comuna Buciumeni||45.15902|25.46392|RO
683526|Comuna Bucşani|Comuna Bucsani||44.8527|25.64561|RO
683152|Comuna Butimanu|Comuna Butimanu||44.6868|25.90535|RO
681805|Comuna Cândeşti Vale|Comuna Candesti Vale||45.0666|25.20455|RO
681740|Comuna Ciocăneşti|Comuna Ciocanesti||44.62136|25.8449|RO
681250|Comuna Cobia de Sus|Comuna Cobia de Sus||44.81197|25.33463|RO
681150|Comuna Cojasca|Comuna Cojasca||44.71855|25.85566|RO
680997|Comuna Comişani|Comuna Comisani||44.87528|25.57009|RO
680948|Comuna Conţeşti|Comuna Contesti||44.67875|25.6733|RO
680875|Comuna Corbii Mari|Comuna Corbii Mari||44.55671|25.4806|RO
680791|Comuna Cornăţelu|Comuna Cornatelu||44.7308|25.6864|RO
680768|Comuna Corneşti|Comuna Cornesti||44.77121|25.88722|RO
680559|Comuna Costeştii din Vale|Comuna Costestii din Vale||44.64096|25.50153|RO
680214|Comuna Crângurile|Comuna Crangurile||44.74277|25.24062|RO
680260|Comuna Crevedia|Comuna Crevedia||44.59787|25.9226|RO
679721|Comuna Dărmăneşti|Comuna Darmanesti||44.92476|25.76145|RO
679263|Comuna Dobra|Comuna Dobra||44.79586|25.71297|RO
679155|Comuna Doiceşti|Comuna Doicesti||44.99144|25.40073|RO
678953|Comuna Dragodana|Comuna Dragodana||44.75892|25.38433|RO
678920|Comuna Dragomireşti|Comuna Dragomiresti||44.89354|25.36611|RO
678289|Oraş Fieni|Comuna Fieni||45.13054|25.41094|RO
678202|Comuna Finta|Comuna Finta||44.7937|25.79926|RO
677040|Comuna Glodeni|Comuna Glodeni||45.0193|25.45913|RO
676536|Comuna Gura Foii|Comuna Gura Foii||44.75712|25.29852|RO
676505|Comuna Gura Ocniţei|Comuna Gura Ocnitei||44.93449|25.57419|RO
676480|Comuna Gura Şuţii|Comuna Gura Sutii||44.76161|25.47575|RO
675926|Comuna Hulubeşti|Comuna Hulubesti||44.84204|25.26253|RO
8334686|Comuna I. L. Caragiale|Comuna I. L. Caragiale||44.92189|25.68409|RO
678592|Comuna Iedera|Comuna Iedera||45.03333|25.63333|RO
674558|Comuna Lucieni|Comuna Lucieni||44.84766|25.4199|RO
674549|Comuna Ludeşti|Comuna Ludesti||44.90396|25.22557|RO
674306|Comuna Lunguleţu|Comuna Lunguletu||44.61601|25.6434|RO
673985|Comuna Malu cu Flori|Comuna Malu cu Flori||45.15617|25.22589|RO
673925|Comuna Măneşti|Comuna Manesti||44.95033|25.30034|RO
673690|Comuna Mătăsaru|Comuna Matasaru||44.67584|25.44365|RO
672952|Comuna Mogoşani|Comuna Mogosani||44.68319|25.38774|RO
672846|Comuna Moroeni|Comuna Moroeni||45.23406|25.44468|RO
672841|Comuna Morteni|Comuna Morteni||44.66221|25.25208|RO
672785|Comuna Moţãieni|Comuna Motaeni||45.10631|25.41045|RO
672253|Comuna Niculeşti|Comuna Nicolesti||44.68664|25.9635|RO
672140|Comuna Nucet|Comuna Nucet||44.80328|25.55434|RO
672013|Comuna Ocniţa|Comuna Ocnita||44.99011|25.55591|RO
671971|Comuna Odobeşti|Comuna Odobesti||44.59883|25.54082|RO
671094|Comuna Perşinari|Comuna Persinari|Comuna Perisinari,Comuna Perişinari,Comuna Persinari,Comuna Perşinari|44.80185|25.4988|RO
670990|Comuna Petreşti|Comuna Petresti||44.66761|25.31458|RO
670860|Comuna Pietrari|Comuna Pietrari||45.10034|25.29356|RO
670814|Comuna Pietroşiţa|Comuna Pietrosita||45.18773|25.42828|RO
670112|Comuna Poiana|Comuna Poiana||44.57429|25.67684|RO
669752|Comuna Potlogi|Comuna Potlogi||44.57362|25.60164|RO
669575|Comuna Produleşti|Comuna Produlesti||44.70336|25.50466|RO
669523|Comuna Pucheni|Comuna Pucheni||45.18211|25.26926|RO
669403|Oraş Rãcari|Comuna Racari||44.66037|25.74703|RO
669349|Comuna Raciu|Comuna Raciu||44.81644|25.4346|RO
669168|Comuna Răscăeţi|Comuna Rascaeti||44.5976|25.25621|RO
669122|Comuna Rãzvad|Comuna Rasvad||44.93588|25.52914|RO
668821|Comuna Râu Alb|Comuna Rau Alb||45.1485|25.33714|RO
668454|Comuna Runcu|Comuna Runcu||45.17702|25.38533|RO
668179|Comuna Sălcioara|Comuna Salcioara|Comuna Besteloaia,Comuna Beşteloaia,Comuna Salcioara,Comuna Sălcioara|44.73645|25.57411|RO
667428|Comuna Şelaru|Comuna Selaru||44.48705|25.31294|RO
666662|Comuna Slobozia Moara|Comuna Slobozia Moara||44.59865|25.73126|RO
666406|Comuna Şotânga|Comuna Sotanga||44.98544|25.38254|RO
665478|Comuna Tărtăşeşti|Comuna Tartasesti||44.57674|25.82134|RO
665455|Comuna Tătărani|Comuna Tatarani||45.00067|25.27998|RO
664889|Oraş Titu|Comuna Titu||44.65747|25.55549|RO
664328|Comuna Ulieşti|Comuna Uliesti||44.6016|25.4077|RO
664291|Comuna Ulmi|Comuna Ulmi||44.8903|25.44376|RO
664038|Comuna Văcăreşti|Comuna Vacaresti||44.84041|25.51989|RO
663668|Comuna Valea Lungă|Comuna Valea Lunga|Valea Lunga-Cricov,Valea Lungă-Cricov|45.06978|25.56993|RO
663604|Comuna Valea Mare|Comuna Valea Mare||44.79383|25.23292|RO
663260|Comuna Văleni-Dâmboviţa|Comuna Valeni-Dambovita||45.17593|25.17678|RO
662771|Comuna Vârfuri|Comuna Varfuri||45.09555|25.50712|RO
662692|Comuna Vişina|Comuna Visina||44.60194|25.35218|RO
662686|Comuna Vişineşti|Comuna Visinesti||45.11256|25.56815|RO
662629|Comuna Vlădeni|Comuna Vladeni||44.8755|25.77318|RO
662515|Comuna Voineşti|Comuna Voinesti||45.06986|25.26072|RO
662423|Comuna Vulcana Băi|Comuna Vulcana Bai|Comuna Vulcan-Bai,Comuna Vulcan-Băi,Comuna Vulcana Bai,Comuna Vulcana Băi|45.0791|25.38219|RO
662420|Comuna Vulcana-Pandele|Comuna Vulcana-Pandele|Comuna Vulcan-Pandele,Comuna Vulcana-Pandele|45.02165|25.39888|RO
8334632|Municipiul Moreni|Municipiul Moreni||44.9801|25.64381|RO
8334634|Municipiul Târgovişte|Municipiul Targoviste||44.92616|25.45498|RO
8334633|Oraş Gãeşti|Oras Gaesti||44.72003|25.3204|RO
8334631|Oraş Pucioasa|Oras Pucioasa||45.0757|25.43335|RO
677692|Galaţi|Galati|Galati,Galaţi,Judetul Galati,Judeţul Galaţi|45.75|27.75|RO
685738|Comuna Bălăbăneşti|Comuna Balabanesti||46.07623|27.75375|RO
685671|Comuna Bălăşeşti|Comuna Balasesti||46.09003|27.65844|RO
685634|Comuna Băleni|Comuna Baleni||45.80942|27.8502|RO
685470|Comuna Băneasa|Comuna Baneasa||45.93008|27.97963|RO
685345|Comuna Barcea|Comuna Barcea||45.74744|27.46265|RO
685033|Oraş Bereşti|Comuna Beresti||46.09648|27.88623|RO
8334723|Comuna Bereşti-Meria|Comuna Beresti-Meria||46.10362|27.92288|RO
683909|Comuna Brăhăşeşti|Comuna Brahasesti||46.0616|27.36196|RO
683853|Comuna Braniştea|Comuna Branistea||45.44141|27.8324|RO
683563|Comuna Buciumeni|Comuna Buciumeni||45.97702|27.31922|RO
682510|Comuna Cavadineşti|Comuna Cavadinesti||46.0804|28.01638|RO
682283|Comuna Cerţeşti|Comuna Certesti||46.01758|27.62321|RO
680739|Comuna Corni|Comuna Corni||45.86922|27.77693|RO
680706|Comuna Corod|Comuna Corod||45.93693|27.6515|RO
680621|Comuna Cosmeşti|Comuna Cosmesti||45.84926|27.31605|RO
680597|Comuna Costache Negri|Comuna Costache Negri||45.70518|27.72342|RO
680052|Comuna Cuca|Comuna Cuca||45.73246|27.89396|RO
680002|Comuna Cudalbi|Comuna Cudalbi||45.77622|27.68604|RO
679847|Comuna Cuza Vodă|Comuna Cuza Voda||45.59595|27.79267|RO
678992|Comuna Drăgăneşti|Comuna Draganesti||45.79281|27.46438|RO
678879|Comuna Drăguşeni|Comuna Draguseni||46.00203|27.73297|RO
678115|Comuna Fârţăneşti|Comuna Fartanesti||45.79843|27.9695|RO
677984|Comuna Folteşti|Comuna Foltesti||45.72301|28.06995|RO
677869|Comuna Frumuşiţa|Comuna Frumusita||45.65593|28.06631|RO
677805|Comuna Fundeni|Comuna Fundeni||45.56736|27.55104|RO
677406|Comuna Ghidigeni|Comuna Ghidigeni||46.03356|27.4921|RO
676971|Comuna Gohor|Comuna Gohor||46.01539|27.42653|RO
676702|Comuna Griviţa|Comuna Grivita||45.7004|27.64104|RO
675609|Comuna Independenţa|Comuna Independenta||45.47466|27.76025|RO
675416|Comuna Iveşti|Comuna Ivesti||45.66843|27.52467|RO
675181|Comuna Jorăşti|Comuna Jorasti||45.98544|27.87215|RO
674794|Comuna Lieşti|Comuna Liesti||45.62018|27.54132|RO
673701|Comuna Măstăcani|Comuna Mastacani||45.767|28.04175|RO
673684|Comuna Matca|Comuna Matca||45.85686|27.5366|RO
672726|Comuna Movileni|Comuna Movileni||45.76584|27.37587|RO
672657|Comuna Munteni|Comuna Munteni||45.91503|27.44242|RO
672526|Comuna Nămoloasa|Comuna Namoloasa|Comuna Namoloasa,Comuna Namoloasa-Tirg,Comuna Namoloasa-Tîrg,Comuna Nămoloasa|45.52383|27.56307|RO
672355|Comuna Negrileşti|Comuna Negrilesti||45.94768|27.48018|RO
672243|Comuna Nicoreşti|Comuna Nicoresti|Comuna Nicoresti,Comuna Nicoreşti|45.93603|27.29735|RO
672117|Comuna Oancea|Comuna Oancea||45.90648|28.11118|RO
671186|Comuna Pechea|Comuna Pechea||45.64303|27.82756|RO
670647|Comuna Piscu|Comuna Piscu||45.51681|27.71645|RO
670109|Comuna Poiana|Comuna Poiana||45.99554|27.26693|RO
669629|Comuna Priponeşti|Comuna Priponesti||46.1015|27.43939|RO
669268|Comuna Rădeşti|Comuna Radesti||46.08312|27.79606|RO
669007|Comuna Rediu|Comuna Rediu|Comuna Oasele,Comuna Rediu|45.72065|27.84647|RO
667624|Comuna Scânteieşti|Comuna Scanteesti||45.68833|28.00432|RO
667689|Comuna Schela|Comuna Schela|Comuna Lascar Catargiu,Comuna Lascăr Catargiu,Comuna Schela|45.5181|27.85229|RO
667399|Comuna Şendreni|Comuna Sendreni||45.4132|27.92253|RO
666669|Comuna Slobozia Conachi|Comuna Slobozia Conachi||45.5643|27.77143|RO
666622|Comuna Smârdan|Comuna Smardan||45.49694|27.93554|RO
666612|Comuna Smulţi|Comuna Smulti||45.93246|27.75488|RO
8334950|Comuna Suceveni|Comuna Suceveni||45.99495|28.05748|RO
8334867|Comuna Suhurlui|Comuna Suhurlui||45.72873|27.82678|RO
665241|Comuna Ţepu|Comuna Tepu||45.97734|27.37677|RO
664556|Comuna Tudor Vladimirescu|Comuna Tudor Vladimirescu||45.56466|27.65075|RO
664504|Comuna Tuluceşti|Comuna Tulucesti||45.59242|28.05239|RO
664279|Comuna Umbrăreşti|Comuna Umbraresti||45.71386|27.45893|RO
8334905|Comuna Valea Mãrului|Comuna Valea Marului||45.85934|27.69554|RO
662832|Comuna Vânători|Comuna Vanatori||45.52597|28.00892|RO
662758|Comuna Vârlezi|Comuna Varlezi||45.92244|27.82966|RO
662614|Comuna Vlădeşti|Comuna Vladesti||45.81991|28.08845|RO
8334672|Municipiul Galaţi|Municipiul Galati||45.44078|28.04118|RO
8334701|Municipiul Tecuci|Municipiul Tecuci||45.85155|27.42826|RO
683350|Oraș Târgu Bujor|Oras Targu Bujor||45.87398|27.92304|RO
677104|Giurgiu|Giurgiu|Giurgiu,Judetul Giurgiu,Judeţul Giurgiu,Județul Giurgiu|44.16667|25.91667|RO
686653|Comuna Adunaţii-Copăceni|Comuna Adunatii-Copaceni||44.25847|26.06477|RO
685472|Comuna Băneasa|Comuna Baneasa||44.03785|26.06071|RO
684268|Comuna Bolintin Deal|Comuna Bolintin Deal||44.44593|25.82301|RO
684265|Oraş Bolintin-Vale|Comuna Bolintin Vale||44.44356|25.7393|RO
683527|Comuna Bucşani|Comuna Bucsani||44.35805|25.65081|RO
683327|Comuna Bulbucata|Comuna Bulbucata||44.29537|25.82284|RO
683131|Comuna Buturugeni|Comuna Buturugeni||44.34661|25.83382|RO
682898|Comuna Călugăreni|Comuna Calugareni||44.16412|25.99392|RO
681337|Comuna Clejani|Comuna Clejani|Comuna Babele,Comuna Clejani|44.31582|25.7356|RO
681105|Comuna Colibaşi|Comuna Colibasi||44.21838|26.19239|RO
681033|Comuna Comana|Comuna Comana||44.17965|26.14905|RO
680606|Comuna Cosoba|Comuna Cosoba||44.52268|25.81903|RO
680255|Comuna Crevedia Mare|Comuna Crevedia Mare||44.4367|25.6105|RO
679815|Comuna Daia|Comuna Daia||43.99944|25.99228|RO
678554|Comuna Iepureşti|Comuna Epuresti||44.26376|25.8804|RO
678038|Comună Floreşti-Stoeneşti|Comuna Floresti-Stoenesti|Comuna Floresti,Comuna Floresti-Stoenesti,Comuna Floreşti,Comună Floreşti-Stoeneşti|44.49152|25.7114|RO
677916|Comuna Frăteşti|Comuna Fratesti|Comuna Fratesti,Comuna Frăteşti,Comuna Turbatu|43.95495|25.96212|RO
8334841|Comuna Gãiseni|Comuna Gaiseni||44.51633|25.63261|RO
677575|Comuna Găujani|Comuna Gaujani||43.73995|25.71079|RO
677369|Comuna Ghimpaţi|Comuna Ghimpati|Comuna Balaria,Comuna Bălăria,Comuna Ghimpati,Comuna Ghimpaţi|44.19231|25.7836|RO
676980|Comuna Gogoşari|Comuna Gogosari||43.86611|25.68497|RO
676861|Comuna Goştinari|Comuna Gostinari||44.17765|26.23792|RO
676857|Comuna Gostinu|Comuna Gostinu||43.99738|26.12297|RO
676826|Comuna Grădinari|Comuna Gradinari||44.39546|25.81702|RO
676772|Comuna Greaca|Comuna Greaca||44.12591|26.33371|RO
676242|Comuna Herăşti|Comuna Herasti||44.21077|26.36678|RO
675966|Comuna Hotarele|Comuna Hotarele||44.17536|26.37078|RO
675372|Comuna Isvoarele|Comuna Isvoarele|Isvoarele|44.16855|26.29673|RO
675373|Comuna Izvoarele|Comuna Izvoarele|Comuna Beiu,Comuna Izvoarele|44.04869|25.80326|RO
675191|Comuna Joiţa|Comuna Joita||44.49002|25.87205|RO
674831|Comuna Letca Nouă|Comuna Letca Noua|Comuna Letca Noua,Comuna Letca Nouă,Comuna Rusii lui Asan,Comuna Ruşii lui Asan|44.23326|25.70941|RO
673991|Comuna Malu|Comuna Malu||43.81518|25.81863|RO
673091|Comuna Mârşa|Comuna Marsa||44.37355|25.55974|RO
673400|Comuna Mihai Bravu|Comuna Mihai Bravu||44.14129|26.05812|RO
673385|Oraş Mihãileşti|Comuna Mihailesti||44.31666|25.94103|RO
671932|Comuna Ogrezeni|Comuna Ogrezeni||44.39727|25.77888|RO
671901|Comuna Oinacu|Comuna Oinacu||43.95609|26.03403|RO
669541|Comuna Prundu|Comuna Prundu||44.08334|26.2121|RO
669441|Comuna Putineiu|Comuna Putineiu||43.90072|25.78225|RO
669125|Comuna Răsuceni|Comuna Rasuceni||44.08416|25.68758|RO
8334869|Comuna Roata De Jos|Comuna Roata De Jos||44.41388|25.53061|RO
668361|Comuna Săbăreni|Comuna Sabareni||44.50185|25.8882|RO
8334639|Comuna Schitu|Comuna Schitu||44.14574|25.8424|RO
667019|Comuna Singureni|Comuna Singureni||44.22975|25.95363|RO
666685|Comuna Slobozia|Comuna Slobozia||43.85671|25.91074|RO
666295|Comuna Stăneşti|Comuna Stanesti||43.93344|25.87967|RO
666065|Comuna Stoeneşti|Comuna Stoenesti||44.14164|25.89349|RO
664723|Comuna Toporu|Comuna Toporu||43.99588|25.64737|RO
8334678|Comuna Ulmi|Comuna Ulmi||44.4934|25.76687|RO
663776|Comuna Valea Dragului|Comuna Valea Dragului||44.21135|26.30682|RO
662823|Comuna Vânătorii Mici|Comuna Vanatorii Mici||44.49072|25.56116|RO
663195|Comuna Vărăşti|Comuna Varasti||44.24616|26.25221|RO
663084|Comuna Vedea|Comuna Vedea|Comuna Arsache,Comuna Vedea|43.78217|25.7886|RO
8334712|Municipiul Giurgiu|Municipiul Giurgiu||43.89051|25.96609|RO
676898|Gorj|Gorj|Gorj,Judetul Gorj,Judeţul Gorj,Județul Gorj|45.04636|23.28278|RO
686569|Comuna Albeni|Comuna Albeni||45.01363|23.60208|RO
686472|Comuna Alimpeşti|Comuna Alimpesti||45.10542|23.79651|RO
686309|Comuna Aninoasa|Comuna Aninoasa||44.74836|23.47372|RO
686234|Comuna Arcani|Comuna Arcani||45.07232|23.14108|RO
685829|Comuna Baia de Fier|Comuna Baia de Fier||45.17402|23.74152|RO
685686|Comuna Bălăneşti|Comuna Balanesti||45.09028|23.44674|RO
685624|Comuna Băleşti|Comuna Balesti||45.01898|23.18145|RO
8334899|Comuna Bâlteni|Comuna Balteni||44.86667|23.26736|RO
685382|Comuna Bărbăteşti|Comuna Barbatesti||44.85916|23.5076|RO
8334646|Comuna Bengeşti-Ciocadia|Comuna Bengesti-Ciocadia||45.09845|23.60621|RO
685086|Berleşti|Comuna Berbesti||44.92835|23.65647|RO
8334995|Comuna Bolboşi|Comuna Bolbosi||44.7374|23.22157|RO
684231|Comuna Borăscu|Comuna Borascu||44.70105|23.26739|RO
683877|Comuna Brăneşti|Comuna Branesti|Comuna Branesti,Comuna Brăneşti,Comuna Valea lui Ciine,Comuna Valea lui Cîine|44.66555|23.47213|RO
683293|Oraş Bumbeşti-Jiu|Comuna Bumbesti-Jiu||45.14429|23.38185|RO
683292|Comuna Bumbeşti-Piţic|Comuna Bumbesti-Piticu||45.12413|23.70348|RO
8334704|Comuna Bustuchin|Comuna Bustuchin||44.96835|23.70347|RO
681893|Comuna Câlnic|Comuna Calnicu||44.94202|23.06292|RO
682788|Comuna Căpreni|Comuna Capreni||44.74439|23.62033|RO
682536|Comuna Cătunele|Comuna Catunele||44.83902|22.92465|RO
681400|Comuna Ciuperceni|Comuna Ciuperceni||44.928|22.99173|RO
680310|Comuna Crasna|Comuna Crasna|Comuna Crasna,Comuna Turbati,Comuna Turbaţi|45.17065|23.55625|RO
680066|Comuna Crușeț|Comuna Cruset||44.63848|23.67247|RO
679768|Comuna Dănciuleşti|Comuna Danciulesti||44.77004|23.76023|RO
679753|Comuna Dăneşti|Comuna Danesti||44.96735|23.3439|RO
678900|Comuna Drăgoteşti|Comuna Dragotesti||44.79957|23.16192|RO
8334703|Comuna Drãguţeşti|Comuna Dragutesti||44.9637|23.2348|RO
8334826|Comuna Fãrcãşeşti|Comuna Farcasesti||44.87069|23.19279|RO
8334961|Comuna Glogova|Comuna Glogova||44.91623|22.9081|RO
677001|Comuna Godineşti|Comuna Godinesti||44.97634|22.96093|RO
675908|Comuna Hurezani|Comuna Hurezani||44.80305|23.63617|RO
675541|Comuna Ioneşti|Comuna Ionesti||44.61636|23.42688|RO
675136|Comuna Jupâneşti|Comuna Jupanesti||44.91241|23.52325|RO
674901|Comuna Leleşti|Comuna Lelesti||45.09875|23.19761|RO
674802|Comuna Licurici|Comuna Licuriciu||44.87544|23.62641|RO
674624|Comuna Logreşti-Moşteni|Comuna Logresti-Mosteni||44.88848|23.71256|RO
673694|Comuna Mătăsari|Comuna Matasari||44.85764|23.06819|RO
672580|Comuna Muşeteşti|Comuna Musetesti||45.15231|23.45022|RO
672413|Comuna Negomir|Comuna Negomiru||44.78593|23.22744|RO
671558|Comuna Padeş|Comuna Pades||45.05089|22.80954|RO
671052|Comuna Peştişani|Comuna Pestisani||45.07061|23.04902|RO
670430|Comuna Plopşoru|Comuna Plopsoru||44.73869|23.39053|RO
669954|Comuna Polovragi|Comuna Polovragi||45.17196|23.82134|RO
669642|Comuna Prigoria|Comuna Prigoria||45.05711|23.68453|RO
8334640|Comuna Roşia De Amaradia|Comuna Rosia De Amaradia||45.04419|23.75991|RO
668456|Comuna Runcu|Comuna Runcu||45.12041|23.13974|RO
668311|Comuna Săcelu|Comuna Sacelu||45.10648|23.53717|RO
668118|Comuna Samarineşti|Comuna Samarinesti||44.77152|23.04889|RO
667772|Comuna Săuleşti|Comuna Saulesti||44.81247|23.48767|RO
667690|Comuna Schela|Comuna Schela||45.15883|23.32395|RO
667609|Comuna Scoarţa|Comuna Scoarta||45.02872|23.47131|RO
666723|Comuna Slivileşti|Comuna Slivilesti||44.79198|23.10761|RO
666293|Comuna Stăneşti|Comuna Stanesti||45.1305|23.25328|RO
8334812|Comuna Stejari|Comuna Stejari||44.77359|23.70567|RO
666047|Comuna Stoina|Comuna Stoina||44.67998|23.64563|RO
665057|Comuna Ţânţăreni|Comuna Tantareni|Tantareni,Țânțăreni|44.61874|23.54285|RO
665016|Oraş Târgu Cãrbuneşti|Comuna Targu Carbunesti||44.9655|23.49567|RO
665276|Comuna Teleşti|Comuna Telesti||44.98175|23.10843|RO
665167|Oraş Ţicleni|Comuna Ticleni||44.88344|23.38921|RO
664908|Oraş Tismana|Comuna Tismana||45.04464|22.93803|RO
664478|Comuna Turburea|Comuna Turburea||44.68249|23.53171|RO
664474|Oraş Turceni|Comuna Turceni||44.71779|23.35419|RO
664466|Comuna Turcineşti|Comuna Turcinesti||45.12744|23.30333|RO
664183|Comuna Urdari|Comuna Urdari||44.79934|23.296|RO
663975|Comuna Văgiuleşti|Comuna Vagiulesti||44.7298|23.10113|RO
662597|Comuna Vladimir|Comuna Vladimiru||44.82235|23.5552|RO
8334984|Municipiul Motru|Municipiul Motru||44.81422|22.98229|RO
8334833|Municipiul Târgu Jiu|Municipiul Targu Jiu||45.05278|23.27708|RO
672153|Novaci|Novaci||45.16462|23.66839|RO
8334706|Oraş Rovinari|Oras Rovinari||44.93857|23.15598|RO
676309|Harghita|Harghita|Harghita,Judetul Harghita,Judeţul Harghita,Județul Harghita|46.58333|25.41667|RO
686058|Comuna Atid|Comuna Atid||46.45844|25.04357|RO
686019|Comuna Avrămeşti|Comuna Avramesti||46.364|25.03223|RO
684869|Comuna Bilbor|Comuna Bilbor||47.05615|25.49989|RO
683957|Comuna Brădeşti|Comuna Bradesti||46.35788|25.35195|RO
682804|Comuna Căpâlniţa|Comuna Capalnita||46.36047|25.51515|RO
681521|Comuna Cârţa|Comuna Carta||46.54068|25.76275|RO
8334691|Comuna Ciceu|Comuna Ciceu||46.41271|25.76585|RO
681479|Comuna Ciucsângeorgiu|Comuna Ciucsangeorgiu||46.33942|25.9986|RO
681435|Comuna Ciumani|Comuna Ciumani||46.67821|25.51825|RO
680854|Comuna Corbu|Comuna Corbu||46.99559|25.65696|RO
680670|Comuna Corund|Comuna Corund||46.4806|25.2007|RO
680394|Comuna Cozmeni|Comuna Cozmeni||46.20934|25.94274|RO
679752|Comuna Dăneşti|Comuna Danesti||46.51712|25.74989|RO
679327|Comuna Dârjiu|Comuna Darjiu||46.20378|25.17462|RO
679683|Comuna Dealu|Comuna Dealu||46.3707|25.30599|RO
679308|Comuna Ditrău|Comuna Ditrau||46.84564|25.5274|RO
678351|Comuna Feliceni|Comuna Feliceni||46.27909|25.2743|RO
677885|Comuna Frumoasa|Comuna Frumoasa||46.44683|25.86759|RO
677685|Comuna Gălăuţaş|Comuna Galautas||46.90028|25.39118|RO
675169|Comuna Joseni|Comuna Joseni||46.69525|25.46114|RO
674973|Comuna Lăzarea|Comuna Lazarea||46.76626|25.53875|RO
674899|Comuna Leliceni|Comuna Leliceni||46.349|25.84911|RO
674535|Comuna Lueta|Comuna Lueta||46.28724|25.53719|RO
674416|Comuna Lunca de Jos|Comuna Lunca de Jos||46.59868|25.96582|RO
674412|Comuna Lunca de Sus|Comuna Lunca de Sus||46.51853|25.95575|RO
674293|Comuna Lupeni|Comuna Lupeni||46.39565|25.21905|RO
674212|Comuna Mădăraş|Comuna Madaras||46.49472|25.7475|RO
673730|Comuna Mărtiniş|Comuna Martinis||46.22996|25.38756|RO
673569|Comuna Mereşti|Comuna Meresti|Homorodalmas,Homoródalmás|46.23458|25.46099|RO
673389|Comuna Mihăileni|Comuna Mihaileni||46.48874|25.83027|RO
672699|Comuna Mugeni|Comuna Mugeni||46.26544|25.19498|RO
672030|Comuna Ocland|Comuna Ocland|Okland,Oklánd|46.16242|25.42557|RO
8334952|Comuna Pãuleni-Ciuc|Comuna Pauleni-Ciuc||46.40073|25.84076|RO
8334988|Comuna Plãieşii De Jos|Comuna Plaiesii De Jos||46.21626|26.09436|RO
669813|Comuna Porumbeni|Comuna Porumbeni|Nagygalambfalva|46.27415|25.12006|RO
669734|Comuna Praid|Comuna Praid||46.54844|25.14717|RO
669300|Comuna Racu|Comuna Racu||46.45397|25.77098|RO
668984|Comuna Remetea|Comuna Remetea||46.81908|25.42286|RO
668318|Comuna Săcel|Comuna Sacel||46.32872|24.91795|RO
667068|Comuna Sâncrăieni|Comuna Sancraieni|Comuna Sincraeni,Comuna Sincraieni,Comuna Sîncrăeni,Comuna Sîncrăieni|46.30575|25.8459|RO
667054|Comuna Sândominic|Comuna Sandominic|Csikszentdomokos,Csíkszentdomokos|46.57933|25.79305|RO
667003|Comuna Sânmartin|Comuna Sanmartin||46.26368|25.95348|RO
666944|Comuna Sânsimion|Comuna Sansimion|Csikszentsimon,Csíkszentsimon,Szentsimon|46.25015|25.89196|RO
666905|Comuna Sântimbru|Comuna Santimbru||46.27664|25.81054|RO
667971|Comuna Sărmaş|Comuna Sarmas|Salamas,Salamás|46.8868|25.44289|RO
667871|Comuna Satu Mare|Comuna Satu Mare||46.34082|25.38378|RO
8334682|Comuna Secuieni|Comuna Secuieni||46.27623|24.96946|RO
8334845|Comuna Siculeni|Comuna Siculeni||46.43537|25.75409|RO
667093|Comuna Simoneşti|Comuna Simonesti|Simenfalva,Siménfalva|46.35466|25.11325|RO
665872|Comuna Subcetate|Comuna Subcetate||46.85645|25.40652|RO
665684|Comuna Suseni|Comuna Suseni||46.6435|25.56479|RO
664816|Comuna Tomeşti|Comuna Tomesti||46.55617|25.77922|RO
664510|Comuna Tulgheş|Comuna Tulghes|Gyergyotoelgyes,Gyergyótölgyes,Toelgyes,Tölgyes|46.92544|25.75328|RO
664418|Comuna Tuşnad|Comuna Tusnad||46.20745|25.90305|RO
664330|Comuna Ulieş|Comuna Ulies||46.21153|25.27048|RO
663157|Comuna Vărşag|Comuna Varsag||46.53155|25.339|RO
662454|Comuna Voşlãbeni|Comuna Voslobeni|Vaslab,Vasláb,Voslobeni,Voșlobeni|46.63582|25.65282|RO
662216|Comuna Zetea|Comuna Zetea||46.46047|25.42823|RO
8334992|Municipiul  Topliţa|Municipiul  Toplita||46.93701|25.36052|RO
8334611|Municipiul Gheorgheni|Municipiul Gheorgheni||46.72268|25.59917|RO
8334612|Municipiul Miercurea Ciuc|Municipiul Miercurea Ciuc||46.36091|25.79985|RO
8334721|Municipiul Odorheiu Secuiesc|Municipiul Odorheiu Secuiesc|Szekelyudvarhely,Székelyudvarhely|46.30646|25.29551|RO
8334705|Oraş Bãile Tuşnad|Oras Baile Tusnad||46.14707|25.86013|RO
8334910|Oraş Bãlan|Oras Balan||46.6574|25.80554|RO
8334764|Oraş Borsec|Oras Borsec||46.96551|25.56173|RO
8334922|Oraş Cristuru Secuiesc|Oras Cristuru Secuiesc||46.2839|25.04583|RO
662569|Oraş Vlãhiţa|Oras Vlahita||46.37412|25.57625|RO
675917|Hunedoara|Hunedoara|Hunedoara,Judetul Hunedoara,Judeţul Hunedoara,Județul Hunedoara|45.75|23.0|RO
686306|Oraş Aninoasa|Comuna Aninoasa||45.39316|23.3302|RO
685931|Comuna Băcia|Comuna Bacia||45.80832|23.0253|RO
685831|Comuna Baia de Criş|Comuna Baia de Cris||46.18227|22.70027|RO
685764|Comuna Băiţa|Comuna Baita||46.02424|22.89087|RO
685581|Comuna Balşa|Comuna Balsa||46.04738|23.06886|RO
685448|Comuna Băniţa|Comuna Banita||45.45636|23.23214|RO
685321|Comuna Baru|Comuna Baru|Comuna Baru,Comuna Livada de Cimp,Comuna Livada de Cîmp,Comuna Livadia de Cimp,Comuna Livadia de Cîmp|45.47912|23.15132|RO
685253|Comuna Bătrâna|Comuna Batrana||45.80901|22.58859|RO
684994|Comuna Beriu|Comuna Beriu||45.76347|23.23126|RO
684605|Comuna Blăjeni|Comuna Blajeni||46.25491|22.90335|RO
684102|Comuna Boşorod|Comuna Bosorod||45.63805|23.1299|RO
683872|Comuna Brănişca|Comuna Branisca||45.97185|22.76723|RO
683709|Comuna Bretea Română|Comuna Bretea Romana||45.66021|23.01665|RO
683593|Comuna Buceş|Comuna Buces||46.1913|22.97718|RO
683507|Comuna Bucureşci|Comuna Bucuresci||46.12392|22.93047|RO
8334801|Comuna Bulzeştii De Sus|Comuna Bulzestii De Sus||46.29383|22.77766|RO
683258|Comuna Bunila|Comuna Bunila||45.69454|22.65763|RO
683222|Comuna Burjuc|Comuna Burjuc||45.971|22.50164|RO
683029|Oraş Cãlan|Comuna Calan|Pusztakalan,Pusztakalán|45.7394|23.01035|RO
681577|Comuna Cârjiţi|Comuna Carjiti||45.84678|22.83467|RO
682390|Comuna Cerbăl|Comuna Cerbal||45.78603|22.68059|RO
682286|Comuna Certeju de Sus|Comuna Certeju de Sus||45.97437|22.98863|RO
680197|Comuna Crişcior|Comuna Criscior||46.12326|22.8659|RO
679480|Comuna Densuş|Comuna Demsus||45.56403|22.77805|RO
679262|Comuna Dobra|Comuna Dobra||45.88654|22.58817|RO
677518|Oraş Geoagiu|Comuna Geoagiu||45.94835|23.20022|RO
677480|Comuna Ghelari|Comuna Ghelar||45.7181|22.77414|RO
676491|Comuna Gurasada|Comuna Gurasada|Comuna Gurasada|45.98515|22.58854|RO
676313|Comuna Hărău|Comuna Harau||45.90555|22.98136|RO
