id|name|asciiName|alternateNames|latitude|longitude|countryCode
6269131|England|England||52.16045|-0.70312|GB
3333122|Barnsley|Barnsley||53.53333|-1.5|GB
7299739|Billingley|Billingley||53.53368|-1.34882|GB
7296175|Brierley|Brierley||53.58307|-1.37661|GB
7292836|Cawthorne|Cawthorne||53.56723|-1.5826|GB
7291105|Dunford|Dunford||53.52729|-1.7519|GB
7299735|Great Houghton|Great Houghton||53.56184|-1.34812|GB
7299736|Gunthwaite and Ingbirchworth|Gunthwaite and Ingbirchworth||53.55069|-1.65827|GB
7292837|High Hoyland|High Hoyland||53.59278|-1.58001|GB
7292838|Hunshelf|Hunshelf||53.49941|-1.58864|GB
7292909|Langsett|Langsett||53.49466|-1.74614|GB
7299737|Little Houghton|Little Houghton||53.55022|-1.36251|GB
7301678|Oxspring|Oxspring||53.51852|-1.6011|GB
7299738|Penistone|Penistone||53.52974|-1.63699|GB
7291582|Shafton|Shafton||53.58981|-1.41153|GB
7291583|Silkstone|Silkstone||53.54111|-1.56578|GB
7292839|Stainborough|Stainborough||53.52073|-1.5218|GB
7301679|Tankersley|Tankersley||53.4901|-1.48176|GB
7301682|Thurgoland|Thurgoland||53.51369|-1.56386|GB
7301683|Wortley|Wortley||53.47487|-1.52939|GB
3333123|Bath and North East Somerset|Bath and North East Somerset||51.33333|-2.5|GB
7296167|Bathampton|Bathampton||51.3923|-2.32627|GB
7296075|Batheaston|Batheaston||51.42019|-2.3315|GB
7298312|Bathford|Bathford||51.3977|-2.29708|GB
7296348|Cameley|Cameley||51.31772|-2.55374|GB
7296349|Camerton|Camerton||51.31638|-2.44775|GB
7296350|Charlcombe|Charlcombe||51.4145|-2.38032|GB
7290772|Chelwood|Chelwood||51.35434|-2.53262|GB
7296159|Chew Magna|Chew Magna||51.36799|-2.61013|GB
7296351|Chew Stoke|Chew Stoke||51.35065|-2.64156|GB
7296160|Claverton|Claverton||51.37408|-2.31134|GB
7296161|Clutton|Clutton||51.32964|-2.53912|GB
7290724|Combe Hay|Combe Hay||51.34256|-2.38821|GB
7296352|Compton Dando|Compton Dando||51.38762|-2.50851|GB
7298313|Compton Martin|Compton Martin||51.32192|-2.64521|GB
7296162|Corston|Corston||51.38417|-2.45538|GB
7296552|Dunkerton|Dunkerton||51.33482|-2.42385|GB
7296516|East Harptree|East Harptree||51.2984|-2.61747|GB
7298314|Englishcombe|Englishcombe||51.35942|-2.40891|GB
7296164|Farmborough|Farmborough||51.33802|-2.4939|GB
7296165|Farrington Gurney|Farrington Gurney||51.30045|-2.53248|GB
7296166|Freshford|Freshford||51.33826|-2.31417|GB
7296517|High Littleton|High Littleton||51.31711|-2.52001|GB
7298315|Hinton Blewett|Hinton Blewett||51.30713|-2.58223|GB
7296168|Hinton Charterhouse|Hinton Charterhouse||51.32636|-2.32332|GB
7296553|Kelston|Kelston||51.4021|-2.42512|GB
7296076|Keynsham|Keynsham||51.41251|-2.49775|GB
7296077|Marksbury|Marksbury||51.36327|-2.48217|GB
7296079|Monkton Combe|Monkton Combe||51.35779|-2.32866|GB
7298316|Nempnett Thrubwell|Nempnett Thrubwell||51.35435|-2.68411|GB
7296080|Newton St. Loe|Newton St. Loe||51.37687|-2.429|GB
7296554|North Stoke|North Stoke||51.41994|-2.42477|GB
7296081|Norton Malreward|Norton Malreward||51.38697|-2.56295|GB
7296169|Norton-Radstock|Norton-Radstock||51.28934|-2.46186|GB
7296170|Paulton|Paulton||51.30417|-2.48606|GB
7298317|Peasedown St. John|Peasedown St. John||51.31158|-2.42863|GB
7296082|Priston|Priston||51.34758|-2.44603|GB
7298318|Publow|Publow||51.37589|-2.54426|GB
7296555|Saltford|Saltford||51.40314|-2.46073|GB
7296171|Shoscombe|Shoscombe||51.30593|-2.40255|GB
7296556|Southstoke|Southstoke||51.34822|-2.35977|GB
7298319|St. Catherine|St. Catherine||51.428|-2.3326|GB
7296083|Stanton Drew|Stanton Drew||51.36107|-2.56951|GB
7296557|Stowey-Sutton|Stowey-Sutton||51.33376|-2.59032|GB
7298320|Swainswick|Swainswick||51.41912|-2.35771|GB
7296172|Timsbury|Timsbury||51.32654|-2.48098|GB
7296084|Ubley|Ubley||51.32205|-2.6755|GB
7296558|Wellow|Wellow||51.32086|-2.37834|GB
7296173|West Harptree|West Harptree||51.31161|-2.62197|GB
7296086|Whitchurch|Whitchurch||51.40319|-2.55876|GB
7290534|Bedford|Bedford||52.18831|-0.45316|GB
7291584|Biddenham|Biddenham||52.14361|-0.50685|GB
7301689|Bletsoe|Bletsoe||52.22227|-0.49622|GB
7297807|Bolnhurst and Keysoe|Bolnhurst and Keysoe||52.23699|-0.427|GB
7294027|Brickhill|Brickhill||52.1574|-0.46202|GB
7301690|Bromham|Bromham||52.15313|-0.52943|GB
7291585|Cardington|Cardington||52.11093|-0.40249|GB
2653761|Carlton and Chellington|Carlton and Chellington||52.18911|-0.59841|GB
7292840|Clapham|Clapham||52.17444|-0.48847|GB
7291586|Colmworth|Colmworth||52.20882|-0.3785|GB
7292841|Cople|Cople||52.12124|-0.38403|GB
7301691|Dean and Shelton|Dean and Shelton||52.30403|-0.47656|GB
7292842|Eastcotts|Eastcotts||52.09657|-0.41683|GB
7292843|Elstow|Elstow||52.10315|-0.46496|GB
7301692|Felmersham|Felmersham||52.20646|-0.55029|GB
7299740|Great Barford|Great Barford||52.15957|-0.3576|GB
7291587|Great Denham|Great Denham||52.1278|-0.51064|GB
7300486|Harrold|Harrold||52.20441|-0.63577|GB
7301693|Kempston|Kempston||52.11679|-0.49955|GB
7301695|Kempston Rural|Kempston Rural||52.11952|-0.54576|GB
7290872|Knotting and Souldrop|Knotting and Souldrop||52.25175|-0.55158|GB
7301696|Little Barford|Little Barford||52.19626|-0.26704|GB
7292844|Little Staughton|Little Staughton||52.24731|-0.39333|GB
7300487|Melchbourne and Yielden|Melchbourne and Yielden||52.28307|-0.5012|GB
7292845|Milton Ernest|Milton Ernest||52.19392|-0.5092|GB
7300488|Oakley|Oakley||52.17372|-0.53006|GB
7292846|Odell|Odell||52.21838|-0.59593|GB
7300489|Pavenham|Pavenham||52.18944|-0.54288|GB
7292847|Pertenhall|Pertenhall||52.27815|-0.40359|GB
7299741|Podington|Podington||52.2498|-0.61849|GB
7301697|Ravensden|Ravensden||52.1806|-0.44693|GB
7292848|Renhold|Renhold||52.15862|-0.40138|GB
7299742|Riseley|Riseley||52.25186|-0.48035|GB
7300490|Roxton|Roxton||52.17546|-0.3113|GB
7297808|Sharnbrook|Sharnbrook||52.2265|-0.54699|GB
7299743|Stagsden|Stagsden||52.12811|-0.57235|GB
7297809|Staploe|Staploe||52.22308|-0.33303|GB
7297917|Stevington|Stevington||52.16709|-0.55858|GB
7292849|Stewartby|Stewartby||52.08023|-0.50875|GB
7299744|Swineshead|Swineshead||52.27996|-0.45392|GB
7292850|Thurleigh|Thurleigh||52.21269|-0.4609|GB
7300491|Turvey|Turvey||52.15755|-0.6068|GB
7292851|Wilden|Wilden||52.18754|-0.39499|GB
7291104|Willington|Willington||52.12713|-0.36995|GB
7301698|Wilshamstead|Wilshamstead||52.08377|-0.44196|GB
7300492|Wootton|Wootton||52.09383|-0.54671|GB
7292852|Wyboston, Chawston and Colesden|Wyboston, Chawston and Colesden||52.19321|-0.32421|GB
7301699|Wymington|Wymington||52.26842|-0.60386|GB
3333126|Blackburn with Darwen|Blackburn with Darwen||53.66667|-2.46667|GB
7300542|Eccleshill|Eccleshill||53.70678|-2.4517|GB
7296559|Livesey|Livesey||53.7252|-2.52511|GB
7299745|North Turton|North Turton||53.65648|-2.44749|GB
7299746|Pleasington|Pleasington||53.74156|-2.54397|GB
7301700|Tockholes|Tockholes||53.69578|-2.51373|GB
7294199|Yate and Pickup Bank|Yate and Pickup Bank||53.71319|-2.43034|GB
3333127|Blackpool|Blackpool||53.83333|-3.03333|GB
3333128|Borough of Bolton|Borough of Bolton||53.58333|-2.5|GB
7292854|Blackrod|Blackrod||53.59115|-2.59034|GB
7299757|Horwich|Horwich||53.60307|-2.52379|GB
7300546|Westhoughton|Westhoughton||53.551|-2.52782|GB
3333136|Borough of Bury|Borough of Bury||53.58333|-2.33333|GB
2647601|Borough of Halton|Borough of Halton||53.33333|-2.75|GB
7295222|Daresbury|Daresbury||53.33027|-2.62449|GB
7300654|Hale|Hale||53.32886|-2.80007|GB
7295223|Halebank|Halebank||53.34598|-2.78873|GB
7290984|Moore|Moore||53.3541|-2.64765|GB
7296534|Preston Brook|Preston Brook||53.31651|-2.63916|GB
7293631|Sandymoor|Sandymoor||53.34218|-2.6684|GB
2641238|Borough of North Tyneside|Borough of North Tyneside||55.03333|-1.5|GB
3333179|Borough of Oldham|Borough of Oldham||53.55|-2.08333|GB
7300909|Saddleworth|Saddleworth||53.5642|-1.99134|GB
7290944|Shaw and Crompton|Shaw and Crompton||53.58281|-2.08846|GB
3333188|Borough of Rochdale|Borough of Rochdale||53.58333|-2.16667|GB
3333202|Borough of Stockport|Borough of Stockport||53.41667|-2.16667|GB
7301310|Offerton Park|Offerton Park||53.39244|-2.11963|GB
3333207|Borough of Swindon|Borough of Swindon||51.58333|-1.75|GB
7291959|Bishopstone|Bishopstone||51.54885|-1.65076|GB
7291960|Blunsdon St. Andrew|Blunsdon St. Andrew||51.61454|-1.79845|GB
7301448|Castle Eaton|Castle Eaton||51.65105|-1.77826|GB
7292641|Chiseldon|Chiseldon||51.51479|-1.73569|GB
7298037|Covingham|Covingham||51.56606|-1.72968|GB
7294170|Hannington|Hannington||51.64307|-1.74585|GB
7297368|Haydon Wick|Haydon Wick||51.59535|-1.81531|GB
7292642|Highworth|Highworth||51.62371|-1.70013|GB
7292643|Inglesham|Inglesham||51.67396|-1.70277|GB
7294022|Liddington|Liddington||51.52325|-1.69554|GB
7298918|South Marston|South Marston||51.58912|-1.71732|GB
7292644|Stanton Fitzwarren|Stanton Fitzwarren||51.61022|-1.7459|GB
7292645|Stratton St. Margaret|Stratton St. Margaret||51.5819|-1.75288|GB
7301449|Wanborough|Wanborough||51.54369|-1.68174|GB
7291961|Wroughton|Wroughton||51.51785|-1.8056|GB
3333208|Borough of Tameside|Borough of Tameside||53.5|-2.08333|GB
7291795|Mossley|Mossley||53.51634|-2.02418|GB
2635885|Borough of Thurrock|Borough of Thurrock||51.5|0.41667|GB
3333210|Borough of Torbay|Borough of Torbay||50.4516|-3.55785|GB
7296060|Brixham|Brixham||50.39083|-3.51133|GB
3333219|Borough of Wigan|Borough of Wigan||53.5|-2.58333|GB
7297911|Haigh|Haigh||53.57652|-2.60982|GB
7301556|Shevington|Shevington||53.57724|-2.69691|GB
7292762|Worthington|Worthington||53.59942|-2.64185|GB
12165737|Bournemouth, Christchurch and Poole Council|Bournemouth, Christchurch and Poole Council||50.73151|-1.90703|GB
7290680|Christchurch District|Christchurch District||50.76453|-1.77639|GB
3333130|Bracknell Forest|Bracknell Forest||51.41667|-0.75|GB
7294200|Binfield|Binfield||51.43629|-0.7799|GB
7296000|Bracknell|Bracknell||51.40603|-0.75918|GB
7292855|Crowthorne|Crowthorne||51.375|-0.77353|GB
7292856|Sandhurst|Sandhurst||51.35028|-0.78636|GB
7300547|Warfield|Warfield||51.4407|-0.74137|GB
7299763|Winkfield|Winkfield||51.42072|-0.69205|GB
3333131|Bradford|Bradford||53.83333|-1.83333|GB
7300548|Addingham|Addingham||53.93731|-1.89503|GB
7292859|Baildon|Baildon||53.85303|-1.77153|GB
7299762|Burley|Burley||53.90531|-1.77248|GB
7300563|Clayton|Clayton||53.78301|-1.82565|GB
7299758|Cullingworth|Cullingworth||53.82646|-1.90757|GB
7292857|Denholme|Denholme||53.79786|-1.89754|GB
7301705|Harden|Harden||53.84274|-1.87311|GB
7299761|Haworth, Cross Roads and Stanbury|Haworth, Cross Roads and Stanbury||53.82497|-1.98794|GB
7301701|Ilkley|Ilkley||53.92016|-1.82348|GB
7301702|Keighley|Keighley||53.86768|-1.93194|GB
7300564|Menston|Menston||53.89262|-1.7422|GB
7299759|Oxenhope|Oxenhope||53.80461|-1.96377|GB
7292858|Sandy Lane|Sandy Lane||53.81393|-1.83347|GB
7300549|Silsden|Silsden||53.9211|-1.91898|GB
7299760|Steeton with Eastburn|Steeton with Eastburn||53.88978|-1.95169|GB
7299765|Trident|Trident||53.77942|-1.75593|GB
7301703|Wilsden|Wilsden||53.82393|-1.86344|GB
7301704|Wrose|Wrose||53.82715|-1.74959|GB
3333133|Brighton and Hove|Brighton and Hove||50.83333|-0.13333|GB
7297912|Rottingdean|Rottingdean||50.81417|-0.05501|GB
2654408|Buckinghamshire|Buckinghamshire||51.75|-0.75|GB
2656718|Aylesbury Vale|Aylesbury Vale||51.83333|-0.8|GB
7290538|Chiltern District|Chiltern District||51.67844|-0.63208|GB
7290659|South Bucks District|South Bucks District||51.55964|-0.58855|GB
2633462|Wycombe|Wycombe||51.58333|-0.9|GB
3333137|Calderdale|Calderdale||53.7|-2.0|GB
7298332|Blackshaw|Blackshaw||53.74733|-2.0808|GB
7298743|Erringden|Erringden||53.72685|-2.02978|GB
7296187|Hebden Royd|Hebden Royd||53.7131|-2.0024|GB
7298744|Heptonstall|Heptonstall||53.77099|-2.07388|GB
7298333|Ripponden|Ripponden||53.65432|-1.97177|GB
7299809|Todmorden|Todmorden||53.7099|-2.10147|GB
7298745|Wadsworth|Wadsworth||53.78433|-2.03924|GB
2653940|Cambridgeshire|Cambridgeshire||52.33333|0.08333|GB
7290660|Cambridge District|Cambridge District||52.19714|0.12823|GB
2650488|East Cambridgeshire|East Cambridgeshire||52.31667|0.3|GB
2649556|Fenland District|Fenland District||52.53333|0.08333|GB
2646390|Huntingdonshire|Huntingdonshire||52.41667|-0.25|GB
7290661|South Cambridgeshire District|South Cambridgeshire District||52.17921|0.09467|GB
7290535|Central Bedfordshire|Central Bedfordshire||51.99755|-0.42148|GB
7294296|Ampthill|Ampthill||52.03242|-0.48986|GB
7298857|Arlesey|Arlesey||52.00649|-0.26175|GB
7294297|Aspley Guise|Aspley Guise||52.01706|-0.63087|GB
7294322|Aspley Heath|Aspley Heath||52.00139|-0.64773|GB
7298870|Astwick|Astwick||52.03838|-0.23007|GB
7298871|Barton-le-Clay|Barton-le-Clay||51.96514|-0.42794|GB
7299865|Battlesden|Battlesden||51.94638|-0.59312|GB
7299866|Biggleswade|Biggleswade||52.0786|-0.24536|GB
7298042|Blunham|Blunham||52.15487|-0.32797|GB
7298872|Brogborough|Brogborough||52.03863|-0.59754|GB
7298043|Caddington|Caddington||51.86932|-0.46956|GB
7294323|Campton and Chicksands|Campton and Chicksands||52.03745|-0.35221|GB
7296189|Chalgrave|Chalgrave||51.92865|-0.54514|GB
7296190|Chalton|Chalton||51.92505|-0.49676|GB
7298873|Clifton|Clifton||52.03856|-0.29994|GB
7300860|Clophill|Clophill||52.03493|-0.40629|GB
7296191|Cranfield|Cranfield||52.08047|-0.61819|GB
7296192|Dunstable|Dunstable||51.88465|-0.5173|GB
7296465|Dunton|Dunton||52.07948|-0.19221|GB
7294324|Eaton Bray|Eaton Bray||51.87337|-0.5804|GB
7296466|Edworth|Edworth||52.05182|-0.21454|GB
7294316|Eggington|Eggington||51.92507|-0.61523|GB
7292964|Eversholt|Eversholt||51.99106|-0.56324|GB
7298353|Everton|Everton||52.15147|-0.25713|GB
7298354|Eyeworth|Eyeworth||52.08941|-0.17451|GB
7292965|Flitton and Greenfield|Flitton and Greenfield||52.00098|-0.46683|GB
7292966|Flitwick|Flitwick||52.00134|-0.50416|GB
7299863|Gravenhurst|Gravenhurst||52.00772|-0.39013|GB
7296467|Great Billington|Great Billington||51.89533|-0.63808|GB
7296355|Harlington|Harlington||51.96442|-0.48233|GB
7299870|Haynes|Haynes||52.05818|-0.41548|GB
7296193|Heath and Reach|Heath and Reach||51.95115|-0.6464|GB
7294325|Henlow|Henlow||52.02457|-0.28926|GB
7294213|Hockliffe|Hockliffe||51.93093|-0.59652|GB
7299871|Houghton Conquest|Houghton Conquest||52.06539|-0.47824|GB
7296194|Houghton Regis|Houghton Regis||51.90681|-0.53135|GB
7294326|Hulcote and Salford|Hulcote and Salford||52.0427|-0.63466|GB
7296468|Husborne Crawley|Husborne Crawley||52.01371|-0.60106|GB
7296195|Hyde|Hyde||51.8516|-0.38111|GB
7296469|Kensworth|Kensworth||51.8595|-0.50415|GB
7292973|Langford|Langford||52.05028|-0.26126|GB
7292974|Leighton-Linslade|Leighton-Linslade||51.91747|-0.66606|GB
7299872|Lidlington|Lidlington||52.04016|-0.57103|GB
7292975|Marston Moretaine|Marston Moretaine||52.06541|-0.55537|GB
7299873|Maulden|Maulden||52.02885|-0.45542|GB
7296470|Meppershall|Meppershall||52.01999|-0.34028|GB
7296471|Millbrook|Millbrook||52.03537|-0.5266|GB
7299874|Milton Bryan|Milton Bryan||51.9627|-0.58447|GB
7294327|Mogerhanger|Mogerhanger||52.1305|-0.3322|GB
7299875|Northill|Northill||52.10822|-0.31428|GB
7292976|Old Warden|Old Warden||52.08685|-0.33219|GB
7296472|Potsgrove|Potsgrove||51.9631|-0.62284|GB
7294328|Potton|Potton||52.13054|-0.1999|GB
7299876|Pulloxhill|Pulloxhill||51.99022|-0.44832|GB
7299877|Ridgmont|Ridgmont||52.01906|-0.56952|GB
7291391|Sandy|Sandy||52.13122|-0.27679|GB
7294329|Shefford|Shefford||52.03864|-0.33357|GB
7299878|Shillington|Shillington||51.98021|-0.37221|GB
7297563|Silsoe|Silsoe||52.00435|-0.42404|GB
7294330|Slip End|Slip End||51.85688|-0.43691|GB
2637478|South Bedfordshire District|South Bedfordshire District||51.91667|-0.56667|GB
7292977|Southill|Southill||52.05994|-0.32663|GB
7292978|Stanbridge|Stanbridge||51.90273|-0.60855|GB
7294331|Steppingley|Steppingley||52.00945|-0.52792|GB
7294334|Stondon|Stondon||51.99679|-0.31926|GB
7294335|Stotfold|Stotfold||52.00875|-0.22938|GB
7294336|Streatley|Streatley||51.94317|-0.42767|GB
7298044|Studham|Studham||51.82744|-0.52728|GB
7294337|Sundon|Sundon||51.93774|-0.47199|GB
7296038|Sutton|Sutton||52.11077|-0.21914|GB
7290746|Tempsford|Tempsford||52.17017|-0.28358|GB
7299879|Tilsworth|Tilsworth||51.90985|-0.57136|GB
7292979|Tingrith|Tingrith||51.98211|-0.54566|GB
7299880|Toddington|Toddington||51.95467|-0.53464|GB
7297564|Totternhoe|Totternhoe||51.88161|-0.56989|GB
7292980|Westoning|Westoning||51.98156|-0.49885|GB
7299881|Whipsnade|Whipsnade||51.85096|-0.5289|GB
7294338|Woburn|Woburn||51.98746|-0.61922|GB
7292981|Wrestlingworth and Cockayne Hatley|Wrestlingworth and Cockayne Hatley||52.11794|-0.16907|GB
7290536|Cheshire East|Cheshire East||53.16702|-2.36245|GB
7299882|Acton|Acton||53.06835|-2.54893|GB
7299883|Adlington|Adlington||53.3196|-2.12366|GB
7292982|Agden|Agden||53.37321|-2.42738|GB
7294555|Alderley Edge|Alderley Edge||53.30437|-2.23336|GB
7294339|Alpraham|Alpraham||53.13781|-2.61404|GB
7292983|Alsager|Alsager||53.09782|-2.30498|GB
7292984|Arclid|Arclid||53.15226|-2.32186|GB
7292985|Ashley|Ashley||53.35333|-2.33677|GB
7292986|Aston By Budworth|Aston By Budworth||53.31525|-2.47615|GB
7294556|Aston Juxta Mondrum|Aston Juxta Mondrum||53.11221|-2.52318|GB
7292987|Audlem|Audlem||52.98367|-2.50159|GB
7292988|Austerson|Austerson||53.03784|-2.50835|GB
7299884|Baddiley|Baddiley||53.05294|-2.59327|GB
7294340|Baddington|Baddington||53.03831|-2.53478|GB
7294557|Barthomley|Barthomley||53.07241|-2.34664|GB
7292989|Basford|Basford||53.06837|-2.41863|GB
7292990|Batherton|Batherton||53.04494|-2.50413|GB
7294558|Betchton|Betchton||53.12473|-2.32442|GB
7291863|Bexton|Bexton||53.28989|-2.38353|GB
7294561|Bickerton|Bickerton||53.07442|-2.73123|GB
7292992|Blakenhall|Blakenhall||53.02678|-2.40687|GB
7299887|Bollington|Bollington||53.29538|-2.10862|GB
7299888|Bosley|Bosley||53.19088|-2.11471|GB
7299889|Bradwall|Bradwall||53.16844|-2.37942|GB
7299890|Brereton|Brereton||53.18072|-2.3172|GB
7292993|Bridgemere|Bridgemere||53.00004|-2.42014|GB
7298925|Brindley|Brindley||53.08379|-2.61003|GB
7299891|Broomhall|Broomhall||53.02151|-2.54702|GB
7299007|Buerton|Buerton||52.98032|-2.46423|GB
7294343|Bulkeley|Bulkeley||53.08314|-2.70018|GB
7292994|Bunbury|Bunbury||53.11959|-2.6417|GB
7299892|Burland|Burland||53.0692|-2.58202|GB
7299893|Calveley|Calveley||53.12861|-2.5874|GB
7299894|Checkley cum Wrinehill|Checkley cum Wrinehill||53.00839|-2.39465|GB
7299895|Chelford|Chelford||53.26664|-2.26963|GB
7299896|Cholmondeley|Cholmondeley||53.05689|-2.67501|GB
7299897|Cholmondeston|Cholmondeston||53.12004|-2.54817|GB
7292996|Chorley|Chorley||53.05071|-2.63559|GB
7299898|Chorlton|Chorlton||53.04656|-2.40474|GB
7299899|Church Lawton|Church Lawton||53.10016|-2.27302|GB
7292997|Church Minshull|Church Minshull||53.1415|-2.51309|GB
7292998|Congleton|Congleton||53.16308|-2.19577|GB
7299900|Coole Pilate|Coole Pilate||53.01466|-2.51768|GB
7299901|Cranage|Cranage||53.2188|-2.38069|GB
7294562|Crewe Green|Crewe Green||53.08688|-2.38902|GB
7299902|Disley|Disley||53.35323|-2.03291|GB
7292999|Dodcott cum Wilkesley|Dodcott cum Wilkesley||52.97659|-2.5741|GB
7294563|Doddington|Doddington||53.02187|-2.43094|GB
7299903|Eaton|Eaton||53.18853|-2.20053|GB
7293000|Edleston|Edleston||53.0515|-2.54203|GB
7293001|Egerton|Egerton||53.05845|-2.71718|GB
7294344|Faddiley|Faddiley||53.06719|-2.62565|GB
7294214|Gawsworth|Gawsworth||53.22852|-2.1589|GB
7294559|Goostrey|Goostrey||53.23573|-2.33391|GB
7294341|Great Warford|Great Warford||53.29893|-2.28613|GB
7299885|Hankelow|Hankelow||53.01051|-2.49445|GB
7294560|Haslington|Haslington||53.10575|-2.37623|GB
7299886|Hassall|Hassall||53.11737|-2.34628|GB
7294342|Hatherton|Hatherton||53.02318|-2.47353|GB
7292991|Haughton|Haughton||53.10468|-2.61493|GB
7293002|Henbury|Henbury||53.25348|-2.20059|GB
7294564|Henhull|Henhull||53.07603|-2.5384|GB
7293003|High Legh|High Legh||53.34794|-2.46935|GB
7293004|Higher Hurdsfield|Higher Hurdsfield||53.27112|-2.10107|GB
7297565|Holmes Chapel|Holmes Chapel||53.19862|-2.36284|GB
7294215|Hough|Hough||53.04808|-2.43035|GB
7299904|Hulme Walfield|Hulme Walfield||53.18458|-2.22809|GB
7299905|Hunsterson|Hunsterson||53.00449|-2.45143|GB
7293005|Hurleston|Hurleston||53.08883|-2.56761|GB
7294345|Kettleshulme|Kettleshulme||53.30602|-2.01493|GB
7297566|Knutsford|Knutsford||53.30334|-2.36549|GB
7297567|Lea|Lea||53.03476|-2.42562|GB
7299906|Leighton|Leighton||53.11663|-2.4772|GB
7299907|Little Bollington|Little Bollington||53.37506|-2.4041|GB
7294565|Little Warford|Little Warford||53.28767|-2.28675|GB
7294346|Lower Withington|Lower Withington||53.23372|-2.2811|GB
7293006|Lyme Handley|Lyme Handley||53.33309|-2.04713|GB
7293007|Macclesfield Forest and Wildboarclough|Macclesfield Forest and Wildboarclough||53.23285|-2.02487|GB
7294347|Marbury cum Quoisley|Marbury cum Quoisley||53.00676|-2.65236|GB
7294566|Marthall|Marthall||53.28581|-2.30382|GB
7293008|Marton|Marton||53.20891|-2.23042|GB
7298875|Mere|Mere||53.33571|-2.41974|GB
7299908|Middlewich|Middlewich||53.1857|-2.43324|GB
7299909|Millington|Millington||53.35781|-2.40721|GB
7293009|Minshull Vernon|Minshull Vernon||53.14168|-2.4774|GB
7299910|Mobberley|Mobberley||53.32409|-2.31056|GB
7294348|Moreton cum Alcumlow|Moreton cum Alcumlow||53.12905|-2.2367|GB
7294349|Moston|Moston||53.14725|-2.41776|GB
7294567|Mottram St. Andrew|Mottram St. Andrew||53.30984|-2.18295|GB
2641893|Nantwich|Nantwich||53.06884|-2.51822|GB
7299911|Nether Alderley|Nether Alderley||53.2796|-2.24407|GB
7293010|Newbold Astbury|Newbold Astbury||53.14281|-2.22827|GB
7299912|Newhall|Newhall||53.00143|-2.55926|GB
7299913|Norbury|Norbury||53.02599|-2.65843|GB
7299914|North Rode|North Rode||53.1974|-2.17052|GB
7299915|Odd Rode|Odd Rode||53.11828|-2.25589|GB
7294350|Ollerton|Ollerton||53.28389|-2.32882|GB
7294351|Over Alderley|Over Alderley||53.28363|-2.1979|GB
7294352|Peckforton|Peckforton||53.10503|-2.68587|GB
7294568|Peover Inferior|Peover Inferior||53.26663|-2.38237|GB
7294353|Peover Superior|Peover Superior||53.26039|-2.33652|GB
7299916|Pickmere|Pickmere||53.29524|-2.45941|GB
7301672|Plumley|Plumley||53.27212|-2.42013|GB
7296907|Poole|Poole||53.09437|-2.53891|GB
7293011|Pott Shrigley|Pott Shrigley||53.32105|-2.07664|GB
7299918|Poynton-with-Worth|Poynton-with-Worth||53.35301|-2.11257|GB
7294569|Prestbury|Prestbury||53.3012|-2.15451|GB
7294570|Rainow|Rainow||53.28281|-2.05182|GB
7294571|Ridley|Ridley||53.08298|-2.66829|GB
7299919|Rope|Rope||53.07132|-2.46122|GB
7299920|Rostherne|Rostherne||53.35338|-2.38077|GB
7299921|Sandbach|Sandbach||53.13905|-2.3651|GB
7293012|Shavington cum Gresty|Shavington cum Gresty||53.0662|-2.44612|GB
7299922|Siddington|Siddington||53.24021|-2.22809|GB
7294572|Smallwood|Smallwood||53.14316|-2.29069|GB
7298876|Snelson|Snelson||53.26109|-2.29304|GB
7294573|Somerford|Somerford||53.17883|-2.26102|GB
7294354|Somerford Booths|Somerford Booths||53.19291|-2.25504|GB
7294574|Sound|Sound||53.03554|-2.56638|GB
7299923|Spurstow|Spurstow||53.09735|-2.63874|GB
7294575|Stapeley|Stapeley||53.05164|-2.4924|GB
7296030|Stoke|Stoke||53.10429|-2.57411|GB
7296039|Sutton|Sutton||53.22716|-2.0931|GB
7293013|Swettenham|Swettenham||53.20773|-2.29357|GB
7293014|Tabley Inferior|Tabley Inferior||53.29082|-2.42289|GB
7294355|Tabley Superior|Tabley Superior||53.30799|-2.41816|GB
7291965|Tatton|Tatton||53.33273|-2.37332|GB
7294576|Toft|Toft||53.27931|-2.36864|GB
7293015|Twemlow|Twemlow||53.21674|-2.32575|GB
7294356|Walgherton|Walgherton||53.03359|-2.46027|GB
7293016|Wardle|Wardle||53.11408|-2.59435|GB
7299924|Warmingham|Warmingham||53.14068|-2.43681|GB
7293017|Weston|Weston||53.06415|-2.38742|GB
7299925|Wettenhall|Wettenhall||53.14921|-2.5659|GB
7294216|Willaston|Willaston||53.07032|-2.4879|GB
7294357|Wincle|Wincle||53.19147|-2.06054|GB
7294358|Wirswall|Wirswall||52.99681|-2.67878|GB
7294577|Wistaston|Wistaston||53.08582|-2.47956|GB
7299926|Woolstanwood|Woolstanwood||53.10109|-2.49089|GB
7294360|Worleston|Worleston||53.09279|-2.51906|GB
7294578|Wrenbury cum Frith|Wrenbury cum Frith||53.02485|-2.61812|GB
7294361|Wybunbury|Wybunbury||53.04853|-2.45522|GB
7290537|Cheshire West and Chester|Cheshire West and Chester||53.16352|-2.73595|GB
7294362|Acton Bridge|Acton Bridge||53.27514|-2.61299|GB
7294363|Agden|Agden||52.99055|-2.73032|GB
7299927|Aldersey|Aldersey||53.10058|-2.80744|GB
7294579|Aldford|Aldford||53.11975|-2.86495|GB
7296199|Allostock|Allostock||53.24058|-2.38738|GB
7296205|Alvanley|Alvanley||53.2581|-2.75193|GB
7294364|Anderton with Marbury|Anderton with Marbury||53.27933|-2.52342|GB
7299928|Antrobus|Antrobus||53.32063|-2.52977|GB
7296207|Ashton Hayes|Ashton Hayes||53.22193|-2.7305|GB
7294365|Aston|Aston||53.29697|-2.66225|GB
7292682|Bache|Bache||53.20888|-2.89973|GB
7294366|Backford|Backford||53.24354|-2.9052|GB
7294367|Barnton|Barnton||53.27209|-2.55194|GB
7299929|Barrow|Barrow||53.22|-2.78801|GB
7293018|Barton|Barton||53.08135|-2.8292|GB
7294368|Beeston|Beeston||53.12371|-2.69452|GB
7293019|Bickley|Bickley||53.03392|-2.69946|GB
7301658|Bostock|Bostock||53.21478|-2.48943|GB
7294580|Bradley|Bradley||53.00889|-2.74185|GB
7294582|Bridge Trafford|Bridge Trafford||53.23844|-2.82362|GB
7299930|Broxton|Broxton||53.08606|-2.76714|GB
7291115|Bruen Stapleford|Bruen Stapleford||53.1752|-2.76028|GB
7294370|Buerton|Buerton||53.1384|-2.85634|GB
7291116|Burton|Burton||53.17152|-2.73885|GB
7293020|Burwardsley|Burwardsley||53.10332|-2.72556|GB
7294583|Byley|Byley||53.21768|-2.4367|GB
7294371|Caldecott|Caldecott||53.05862|-2.85458|GB
7294372|Capenhurst|Capenhurst||53.2546|-2.94926|GB
7298877|Carden|Carden||53.07108|-2.80067|GB
7298366|Caughall|Caughall||53.23068|-2.87778|GB
7294217|Chester Castle|Chester Castle||53.18571|-2.89212|GB
7294374|Chidlow|Chidlow||52.99985|-2.73962|GB
7294585|Chorlton|Chorlton||53.02544|-2.79898|GB
7294586|Chorlton-by-Backford|Chorlton-by-Backford||53.24442|-2.8926|GB
7294587|Chowley|Chowley||53.0992|-2.78025|GB
7293021|Christleton|Christleton||53.18898|-2.82704|GB
7298045|Church Shocklach|Church Shocklach||53.04229|-2.83773|GB
7294588|Churton By Aldford|Churton By Aldford||53.10652|-2.86841|GB
7298368|Churton By Farndon|Churton By Farndon||53.09715|-2.87407|GB
7294375|Churton Heath|Churton Heath||53.13327|-2.83994|GB
7293022|Claverton|Claverton||53.1661|-2.89168|GB
7294377|Clotton Hoofield|Clotton Hoofield||53.16632|-2.71409|GB
7298369|Clutton|Clutton||53.08613|-2.79755|GB
7294378|Coddington|Coddington||53.10189|-2.83051|GB
7294589|Comberbach|Comberbach||53.29166|-2.54259|GB
7299932|Cotton Abbotts|Cotton Abbotts||53.17868|-2.79906|GB
7294590|Cotton Edmunds|Cotton Edmunds||53.18676|-2.79467|GB
7294379|Crewe-by-Farndon|Crewe-by-Farndon||53.06678|-2.86674|GB
7299933|Croughton|Croughton||53.24505|-2.87736|GB
7294591|Crowton|Crowton||53.2611|-2.62745|GB
7293023|Cuddington|Cuddington||53.01522|-2.81402|GB
7299935|Darnhall|Darnhall||53.16661|-2.52762|GB
7294381|Davenham|Davenham||53.23|-2.50017|GB
7299936|Delamere|Delamere||53.2142|-2.67123|GB
7294592|Dodleston|Dodleston||53.14978|-2.9517|GB
7299937|Duckington|Duckington||53.06199|-2.76694|GB
7293024|Duddon|Duddon||53.18162|-2.72994|GB
7294382|Dunham-on-the-Hill|Dunham-on-the-Hill||53.24933|-2.79449|GB
7293025|Dutton|Dutton||53.30032|-2.61644|GB
7290951|Eaton|Eaton||53.14087|-2.89246|GB
7294593|Eccleston|Eccleston||53.15162|-2.90251|GB
7290866|Edge|Edge||53.0444|-2.76951|GB
7298047|Edgerley|Edgerley||53.10689|-2.84572|GB
7293027|Elton|Elton||53.27076|-2.80889|GB
7293028|Farndon|Farndon||53.08619|-2.8792|GB
7293029|Foulk Stapleford|Foulk Stapleford||53.16599|-2.76198|GB
7296212|Frodsham|Frodsham||53.29345|-2.73683|GB
7294395|Golborne Bellow|Golborne Bellow||53.12684|-2.78701|GB
7299938|Golborne David|Golborne David||53.13247|-2.81444|GB
7294597|Grafton|Grafton||53.05856|-2.82733|GB
7294598|Great Boughton|Great Boughton||53.18995|-2.85604|GB
7294396|Great Budworth|Great Budworth||53.29783|-2.51356|GB
7299939|Guilden Sutton|Guilden Sutton||53.20755|-2.83074|GB
7291123|Hampton|Hampton||53.04026|-2.73303|GB
7293030|Handley|Handley||53.11687|-2.80639|GB
7299934|Hapsford|Hapsford||53.26605|-2.79566|GB
7299940|Hartford|Hartford||53.24369|-2.54839|GB
7293031|Harthill|Harthill||53.09114|-2.744|GB
7294397|Hatton|Hatton||53.14793|-2.78313|GB
7290899|Helsby|Helsby||53.27545|-2.76636|GB
7294398|Hockenhull|Hockenhull||53.1874|-2.77604|GB
7294401|Hoole Village|Hoole Village||53.21178|-2.85408|GB
7293032|Horton-by-Malpas|Horton-by-Malpas||53.03674|-2.81214|GB
7299943|Horton-cum-Peel|Horton-cum-Peel||53.21562|-2.75782|GB
7294402|Huntington|Huntington||53.16333|-2.86295|GB
7294600|Huxley|Huxley||53.14726|-2.74176|GB
7293033|Iddinshall|Iddinshall||53.15799|-2.70207|GB
7299944|Ince|Ince||53.28202|-2.82146|GB
7294403|Kelsall|Kelsall||53.21293|-2.72652|GB
7299945|Kings Marsh|Kings Marsh||53.08626|-2.85223|GB
7294601|Kingsley|Kingsley||53.27156|-2.68218|GB
7294404|Lach Dennis|Lach Dennis||53.2403|-2.44632|GB
7294602|Larkton|Larkton||53.0593|-2.74326|GB
7294603|Lea Newbold|Lea Newbold||53.12826|-2.84578|GB
7299947|Lea-by-Backford|Lea-by-Backford||53.23964|-2.9227|GB
7299948|Ledsham|Ledsham||53.26607|-2.9667|GB
7299949|Little Budworth|Little Budworth||53.18111|-2.6028|GB
7294604|Little Leigh|Little Leigh||53.28511|-2.5803|GB
7297568|Little Stanney|Little Stanney||53.26296|-2.87037|GB
7293034|Littleton|Littleton||53.19409|-2.83384|GB
7294406|Lostock Gralam|Lostock Gralam||53.26563|-2.4497|GB
7298878|Lower Kinnerton|Lower Kinnerton||53.15211|-2.97727|GB
7299950|Macefen|Macefen||53.01781|-2.72302|GB
7293035|Malpas|Malpas||53.02094|-2.75869|GB
7294407|Manley|Manley||53.24813|-2.73445|GB
7299951|Marlston-cum-Lache|Marlston-cum-Lache||53.15914|-2.92214|GB
7293036|Marston|Marston||53.28044|-2.49724|GB
7294408|Mickle Trafford|Mickle Trafford||53.2217|-2.82889|GB
7293037|Mollington|Mollington||53.22724|-2.92747|GB
7294594|Moston|Moston||53.22564|-2.8981|GB
7294383|Mouldsworth|Mouldsworth||53.22988|-2.74625|GB
7294599|Moulton|Moulton||53.21921|-2.52|GB
7299941|Neston|Neston||53.28503|-3.07283|GB
7294399|Nether Peover|Nether Peover||53.25921|-2.40056|GB
7299946|Newton By Malpas|Newton By Malpas||53.00486|-2.80186|GB
7294405|Newton-by-Tattenhall|Newton-by-Tattenhall||53.1348|-2.75232|GB
7299952|Norley|Norley||53.25205|-2.66349|GB
7294581|Northwich|Northwich||53.2558|-2.51575|GB
7293038|Oakmere|Oakmere||53.22154|-2.63504|GB
7293039|Oldcastle|Oldcastle||52.99957|-2.80692|GB
7294409|Overton|Overton||53.03427|-2.78695|GB
7294595|Picton|Picton||53.23213|-2.84839|GB
7294384|Poulton|Poulton||53.12559|-2.89731|GB
7291117|Prior's Heys|Prior's Heys||53.19033|-2.7261|GB
7293040|Puddington|Puddington||53.25668|-3.00077|GB
7294605|Pulford|Pulford||53.13011|-2.93722|GB
7293041|Rowton|Rowton||53.17136|-2.83483|GB
7293042|Rudheath|Rudheath||53.24221|-2.47641|GB
7293043|Rushton|Rushton||53.16519|-2.62523|GB
7299953|Saighton|Saighton||53.15264|-2.8333|GB
7299954|Saughall|Saughall||53.22715|-2.95159|GB
7294606|Shocklach Oviatt|Shocklach Oviatt||53.02936|-2.84595|GB
7294607|Shotwick|Shotwick||53.24678|-2.98601|GB
7294410|Shotwick Park|Shotwick Park||53.23538|-2.97424|GB
7293044|Sproston|Sproston||53.18905|-2.40637|GB
7293045|Stanthorne|Stanthorne||53.19022|-2.46834|GB
7296021|Stockton|Stockton||53.00034|-2.78098|GB
7296501|Stoke|Stoke||53.25765|-2.8713|GB
7293046|Stretton|Stretton||53.07117|-2.83102|GB
7294439|Sutton|Sutton||53.30726|-2.69607|GB
7299955|Tarporley|Tarporley||53.15765|-2.67002|GB
7293047|Tarvin|Tarvin||53.19601|-2.75139|GB
7299956|Tattenhall|Tattenhall||53.1179|-2.74717|GB
7293048|Thornton-le-Moors|Thornton-le-Moors||53.26016|-2.83497|GB
7293049|Threapwood|Threapwood||53.00315|-2.83351|GB
7294608|Tilston|Tilston||53.05283|-2.80378|GB
7299957|Tilstone Fearnall|Tilstone Fearnall||53.13976|-2.64348|GB
7293050|Tiverton|Tiverton||53.14224|-2.68404|GB
7299958|Tushingham cum Grindley|Tushingham cum Grindley||53.00264|-2.70653|GB
7294609|Upton-by-Chester|Upton-by-Chester||53.21629|-2.88317|GB
7299959|Utkinton|Utkinton||53.18167|-2.66708|GB
7293051|Waverton|Waverton||53.16588|-2.80505|GB
7299960|Weaverham|Weaverham||53.25335|-2.57501|GB
7299961|Wervin|Wervin||53.2417|-2.861|GB
7299962|Whitegate and Marton|Whitegate and Marton||53.21283|-2.57493|GB
7293054|Whitley|Whitley||53.31224|-2.58027|GB
7299963|Wigland|Wigland||52.99645|-2.75509|GB
7291122|Willington|Willington||53.19105|-2.69736|GB
7299964|Wimbolds Trafford|Wimbolds Trafford||53.24517|-2.82895|GB
7294610|Wimboldsley|Wimboldsley||53.16767|-2.46899|GB
7293055|Wincham|Wincham||53.278|-2.4784|GB
7299965|Winsford|Winsford||53.19191|-2.52331|GB
7297569|Woodbank|Woodbank||53.2426|-2.98064|GB
7299966|Wychough|Wychough||53.00153|-2.76724|GB
3333125|City and Borough of Birmingham|City and Borough of Birmingham||52.48048|-1.89823|GB
7300538|New Frankley in Birmingham|New Frankley in Birmingham||52.40556|-2.01573|GB
3333164|City and Borough of Leeds|City and Borough of Leeds||53.79644|-1.5477|GB
7295963|Aberford|Aberford||53.84333|-1.34948|GB
7294387|Allerton Bywater|Allerton Bywater||53.74635|-1.36931|GB
7294389|Alwoodley|Alwoodley||53.87088|-1.55771|GB
7293855|Arthington|Arthington||53.89717|-1.58462|GB
7295397|Austhorpe|Austhorpe||53.79533|-1.41247|GB
7295964|Bardsey cum Rigton|Bardsey cum Rigton||53.8823|-1.44771|GB
7298963|Barwick in Elmet and Scholes|Barwick in Elmet and Scholes||53.83748|-1.40615|GB
7295965|Boston Spa|Boston Spa||53.90796|-1.35736|GB
7301461|Bramham cum Oglethorpe|Bramham cum Oglethorpe||53.87924|-1.35095|GB
7297627|Bramhope|Bramhope||53.88434|-1.62282|GB
7297806|Carlton|Carlton||53.8807|-1.66267|GB
7298557|Clifford|Clifford||53.89637|-1.35989|GB
7296378|Collingham|Collingham||53.90664|-1.40565|GB
7295970|Drighlington|Drighlington||53.75645|-1.65819|GB
7298558|East Keswick|East Keswick||53.90199|-1.46017|GB
7293863|Gildersome|Gildersome||53.75648|-1.6195|GB
7296379|Great and Little Preston|Great and Little Preston||53.75977|-1.39842|GB
7295966|Harewood|Harewood||53.88532|-1.5135|GB
7295968|Horsforth|Horsforth||53.84233|-1.64435|GB
7294388|Kippax|Kippax||53.76674|-1.37111|GB
7295967|Ledsham|Ledsham||53.75931|-1.31398|GB
7290957|Ledston|Ledston||53.75844|-1.34001|GB
7293856|Lotherton cum Aberford|Lotherton cum Aberford||53.82203|-1.32411|GB
7295399|Micklefield|Micklefield||53.79625|-1.33008|GB
7293862|Morley|Morley||53.7429|-1.6034|GB
7293857|Otley|Otley||53.90407|-1.69217|GB
7293858|Parlington|Parlington||53.8199|-1.367|GB
7292094|Pool|Pool||53.89769|-1.63561|GB
7295400|Scarcroft|Scarcroft||53.86648|-1.44153|GB
7295969|Shadwell|Shadwell||53.85093|-1.48002|GB
7299072|Sturton Grange|Sturton Grange||53.79565|-1.36325|GB
7295401|Swillington|Swillington||53.76955|-1.41966|GB
7293859|Thorner|Thorner||53.85766|-1.43268|GB
7293860|Thorp Arch|Thorp Arch||53.91967|-1.3379|GB
7296088|Walton|Walton||53.92289|-1.32028|GB
7294386|Wetherby|Wetherby||53.92601|-1.37526|GB
7293861|Wothersome|Wothersome||53.87925|-1.39217|GB
3333190|City and Borough of Salford|City and Borough of Salford||53.5|-2.33333|GB
3333212|City and Borough of Wakefield|City and Borough of Wakefield||53.68085|-1.49895|GB
7292654|Ackworth|Ackworth||53.65178|-1.32256|GB
7301608|Badsworth|Badsworth||53.63193|-1.30612|GB
7292655|Chevet|Chevet||53.63117|-1.47695|GB
7291979|Crigglestone|Crigglestone||53.64227|-1.52547|GB
7301609|Crofton|Crofton||53.65735|-1.44058|GB
7292656|Darrington|Darrington||53.6711|-1.27137|GB
7301463|East Hardwick|East Hardwick||53.6565|-1.29316|GB
7297387|Featherstone|Featherstone||53.6865|-1.36865|GB
7293957|Havercroft with Cold Hiendley|Havercroft with Cold Hiendley||53.61657|-1.42902|GB
7301464|Hemsworth|Hemsworth||53.62068|-1.36042|GB
7291982|Hessle and Hill Top|Hessle and Hill Top||53.65237|-1.35908|GB
7292660|Huntwick with Foulby and Nostell|Huntwick with Foulby and Nostell||53.65689|-1.3933|GB
7292661|Newland with Woodhouse Moor|Newland with Woodhouse Moor||53.69615|-1.4409|GB
7292662|Normanton|Normanton||53.70401|-1.42855|GB
7301465|North Elmsall|North Elmsall||53.6239|-1.2472|GB
7291983|Notton|Notton||53.61189|-1.47761|GB
7291984|Ryhill|Ryhill||53.62816|-1.41563|GB
7297388|Sharlston|Sharlston||53.66772|-1.4113|GB
7301466|Sitlington|Sitlington||53.63893|-1.58275|GB
7291985|South Elmsall|South Elmsall||53.59124|-1.28071|GB
7292663|South Hiendley|South Hiendley||53.6119|-1.40137|GB
7301467|South Kirkby and Moorthorpe|South Kirkby and Moorthorpe||53.5924|-1.32378|GB
7291986|Thorpe Audlin|Thorpe Audlin||53.63759|-1.27241|GB
7297389|Upton|Upton||53.62033|-1.28213|GB
7301604|Walton|Walton||53.64323|-1.44895|GB
7292664|Warmfield cum Heath|Warmfield cum Heath||53.67962|-1.44229|GB
7291987|West Bretton|West Bretton||53.62218|-1.57212|GB
7294171|West Hardwick|West Hardwick||53.66079|-1.37212|GB
7301470|Wintersett|Wintersett||53.6374|-1.42228|GB
7292667|Woolley|Woolley||53.61046|-1.52067|GB
3333134|City of Bristol|City of Bristol||51.45|-2.6|GB
3333159|City of Kingston upon Hull|City of Kingston upon Hull||53.75|-0.33333|GB
3333165|City of Leicester|City of Leicester||52.63333|-1.13333|GB
2633351|City of York|City of York||53.96396|-1.09142|GB
7299712|Acaster Malbis|Acaster Malbis||53.8952|-1.11341|GB
7297916|Askham Richard|Askham Richard||53.92376|-1.18334|GB
7299714|Bishopthorpe|Bishopthorpe||53.92222|-1.09845|GB
7299715|Clifton Without|Clifton Without||53.98143|-1.09635|GB
7299716|Copmanthorpe|Copmanthorpe||53.90923|-1.14133|GB
7299717|Deighton|Deighton||53.89568|-1.04304|GB
7292826|Dunnington|Dunnington||53.95571|-0.98597|GB
7293976|Earswick|Earswick||54.01184|-1.03713|GB
7299718|Elvington|Elvington||53.91733|-0.95485|GB
7293977|Fulford|Fulford||53.92707|-1.0622|GB
7293978|Haxby|Haxby||54.02616|-1.07422|GB
7299719|Heslington|Heslington||53.93155|-1.02311|GB
7293979|Hessay|Hessay||53.97633|-1.19733|GB
7300688|Heworth Without|Heworth Without||53.97829|-1.03516|GB
7292827|Holtby|Holtby||53.97607|-0.98402|GB
7299720|Huntington|Huntington||53.9886|-1.06404|GB
7297554|Kexby|Kexby||53.96104|-0.95502|GB
7292828|Murton|Murton||53.96693|-1.01265|GB
7298398|Naburn|Naburn||53.90073|-1.0769|GB
7292829|Nether Poppleton|Nether Poppleton||53.98754|-1.14635|GB
7299721|New Earswick|New Earswick||53.99319|-1.07498|GB
7292830|Osbaldwick|Osbaldwick||53.95735|-1.03435|GB
7299722|Rawcliffe|Rawcliffe||53.98491|-1.11444|GB
7293980|Rufforth with Knapton|Rufforth with Knapton||53.95453|-1.1765|GB
7298706|Skelton|Skelton||54.00722|-1.12218|GB
7299723|Stockton-on-the-Forest|Stockton-on-the-Forest||54.00899|-0.99775|GB
7297557|Strensall with Towthorpe|Strensall with Towthorpe||54.03683|-1.02416|GB
7299724|Upper Poppleton|Upper Poppleton||53.98168|-1.15133|GB
7297555|Wheldrake|Wheldrake||53.8987|-0.97277|GB
7297556|Wigginton|Wigginton||54.01874|-1.09987|GB
2652355|Cornwall|Cornwall||50.41667|-4.75|GB
7299975|Advent|Advent||50.61256|-4.65653|GB
7293056|Altarnun|Altarnun||50.58532|-4.5352|GB
7294416|Antony|Antony||50.36975|-4.24055|GB
7293057|Blisland|Blisland||50.53583|-4.63691|GB
7294417|Boconnoc|Boconnoc||50.40757|-4.59805|GB
7299979|Bodmin|Bodmin||50.46776|-4.71603|GB
7294420|Botusfleming|Botusfleming||50.43687|-4.25342|GB
7294369|Boyton|Boyton||50.71396|-4.40657|GB
7291111|Breage|Breage||50.11948|-5.33555|GB
7298367|Broadoak|Broadoak||50.44182|-4.60033|GB
7294584|Bude-Stratton|Bude-Stratton||50.83065|-4.52597|GB
7294373|Budock|Budock||50.14405|-5.11785|GB
7294376|Callington|Callington||50.50482|-4.31136|GB
7294400|Calstock|Calstock||50.51686|-4.23405|GB
7299942|Camborne|Camborne||50.21079|-5.32046|GB
7293052|Camelford|Camelford||50.61817|-4.68554|GB
7293053|Cardinham|Cardinham||50.48417|-4.65464|GB
7299989|Carharrack|Carharrack||50.22744|-5.18605|GB
7294218|Carlyon|Carlyon||50.34596|-4.74682|GB
7293066|Carn Brea|Carn Brea||50.21668|-5.25661|GB
7293067|Chacewater|Chacewater||50.25374|-5.16162|GB
7294619|Colan|Colan||50.41773|-5.01943|GB
7294427|Constantine|Constantine||50.12521|-5.16959|GB
7300005|Crantock|Crantock||50.40182|-5.10451|GB
7294219|Crowan|Crowan||50.16782|-5.32303|GB
7294428|Cubert|Cubert||50.38557|-5.10838|GB
7300006|Cuby|Cuby||50.26976|-4.89116|GB
7293068|Cury|Cury||50.05281|-5.23174|GB
7293069|Davidstow|Davidstow||50.63654|-4.60945|GB
7291119|Deviock|Deviock||50.38559|-4.36304|GB
7298048|Dobwalls and Trewidland|Dobwalls and Trewidland||50.43289|-4.48601|GB
7300007|Duloe|Duloe||50.39557|-4.50417|GB
7300008|Egloshayle|Egloshayle||50.5093|-4.7994|GB
7300009|Egloskerry|Egloskerry||50.65369|-4.45856|GB
7291120|Falmouth|Falmouth||50.14505|-5.07133|GB
7294620|Feock|Feock||50.21107|-5.06787|GB
7296380|Forrabury and Minster|Forrabury and Minster||50.66788|-4.67589|GB
7294621|Fowey|Fowey||50.3357|-4.66091|GB
7294622|Germoe|Germoe||50.12076|-5.37991|GB
7293070|Gerrans|Gerrans||50.17504|-4.98456|GB
7300010|Grade-Ruan|Grade-Ruan||50.01128|-5.19035|GB
7294623|Grampound with Creed|Grampound with Creed||50.29816|-4.88108|GB
7296381|Gunwalloe|Gunwalloe||50.05376|-5.2719|GB
7294430|Gweek|Gweek||50.10203|-5.21726|GB
7294624|Gwennap|Gwennap||50.22306|-5.16069|GB
7293071|Gwinear-Gwithian|Gwinear-Gwithian||50.20138|-5.36402|GB
7294625|Hayle|Hayle||50.18845|-5.40721|GB
7300011|Helland|Helland||50.49715|-4.71553|GB
7294626|Helston|Helston||50.09341|-5.27085|GB
7294431|Illogan|Illogan||50.24303|-5.29225|GB
7300012|Jacobstow|Jacobstow||50.73297|-4.5478|GB
7293072|Kea|Kea||50.24196|-5.08126|GB
7294432|Kenwyn|Kenwyn||50.27797|-5.11084|GB
7297571|Kilkhampton|Kilkhampton||50.87478|-4.49156|GB
7293073|Ladock|Ladock||50.33306|-4.96165|GB
7300013|Landewednack|Landewednack||49.978|-5.20733|GB
7294433|Landrake with St. Erney|Landrake with St. Erney||50.41526|-4.30211|GB
7300014|Landulph|Landulph||50.44683|-4.22649|GB
7293074|Laneast|Laneast||50.63973|-4.50071|GB
7293075|Lanhydrock|Lanhydrock||50.44357|-4.69641|GB
7293076|Lanivet|Lanivet||50.45608|-4.76274|GB
7294627|Lanlivery|Lanlivery||50.40054|-4.70225|GB
7293077|Lanner|Lanner||50.21373|-5.20543|GB
7294434|Lanreath|Lanreath||50.39293|-4.55746|GB
7300015|Lansallos|Lansallos||50.34424|-4.52353|GB
7293078|Lanteglos|Lanteglos||50.34157|-4.60484|GB
7294628|Launcells|Launcells||50.83333|-4.47835|GB
7300016|Launceston|Launceston||50.63222|-4.35881|GB
7300017|Lawhitton Rural|Lawhitton Rural||50.62139|-4.32263|GB
7300018|Lesnewth|Lesnewth||50.67659|-4.64377|GB
7293079|Lewannick|Lewannick||50.59923|-4.43932|GB
7293080|Lezant|Lezant||50.5864|-4.34331|GB
7293081|Linkinhorne|Linkinhorne||50.53986|-4.41626|GB
7294220|Liskeard|Liskeard||50.45836|-4.46605|GB
7300019|Looe|Looe||50.35295|-4.46111|GB
7294629|Lostwithiel|Lostwithiel||50.41217|-4.67521|GB
7293082|Ludgvan|Ludgvan||50.1568|-5.4851|GB
7293083|Luxulyan|Luxulyan||50.40052|-4.75643|GB
7294435|Mabe|Mabe||50.15598|-5.14426|GB
7300020|Madron|Madron||50.13749|-5.57556|GB
7294630|Maker-with-Rame|Maker-with-Rame||50.34017|-4.20055|GB
7294436|Manaccan|Manaccan||50.07838|-5.13469|GB
7293084|Marazion|Marazion||50.12787|-5.46218|GB
7294631|Marhamchurch|Marhamchurch||50.79673|-4.51644|GB
7293085|Mawgan-in-Meneage|Mawgan-in-Meneage||50.07115|-5.22481|GB
7300021|Mawgan-in-Pydar|Mawgan-in-Pydar||50.45639|-4.99765|GB
7293086|Mawnan|Mawnan||50.11824|-5.11066|GB
7294632|Menheniot|Menheniot||50.44887|-4.40837|GB
7300022|Mevagissey|Mevagissey||50.27235|-4.78946|GB
7294633|Michaelstow|Michaelstow||50.57977|-4.71387|GB
7291121|Millbrook|Millbrook||50.35394|-4.22059|GB
7294634|Morvah|Morvah||50.15993|-5.62875|GB
7300023|Morval|Morval||50.39196|-4.42655|GB
7294635|Morwenstow|Morwenstow||50.90314|-4.51381|GB
7300024|Mullion|Mullion||50.00702|-5.22857|GB
7293088|Mylor|Mylor||50.18489|-5.08387|GB
7300025|Newquay|Newquay||50.41481|-5.0556|GB
7293089|North Hill|North Hill||50.56455|-4.44986|GB
7300026|North Petherwin|North Petherwin||50.69319|-4.4517|GB
7293090|North Tamerton|North Tamerton||50.74787|-4.41315|GB
7294438|Otterham|Otterham||50.69472|-4.59815|GB
7293091|Padstow|Padstow||50.54373|-4.96521|GB
7294440|Paul|Paul||50.08382|-5.55989|GB
7294636|Pelynt|Pelynt||50.36772|-4.52916|GB
7294637|Penryn|Penryn||50.1702|-5.10406|GB
7293092|Pentewan Valley|Pentewan Valley||50.30829|-4.79275|GB
7294638|Penzance|Penzance||50.12117|-5.53694|GB
7294639|Perranarworthal|Perranarworthal||50.20932|-5.13456|GB
7300027|Perranuthnoe|Perranuthnoe||50.11571|-5.43655|GB
7293093|Perranzabuloe|Perranzabuloe||50.33504|-5.1324|GB
7294640|Philleigh|Philleigh||50.21822|-4.98404|GB
7293094|Pillaton|Pillaton||50.4511|-4.27579|GB
7298049|Porthleven|Porthleven||50.08868|-5.30569|GB
7300028|Portreath|Portreath||50.26727|-5.271|GB
7294441|Poundstock|Poundstock||50.77102|-4.5509|GB
7294641|Probus|Probus||50.28916|-4.95962|GB
7300029|Quethiock|Quethiock||50.45162|-4.35275|GB
7294442|Redruth|Redruth||50.23864|-5.22912|GB
7294443|Roche|Roche||50.41129|-4.8358|GB
7297572|Ruanlanihorne|Ruanlanihorne||50.23704|-4.94289|GB
7294642|Saltash|Saltash||50.40333|-4.24672|GB
7300030|Sancreed|Sancreed||50.11397|-5.61478|GB
7300031|Sennen|Sennen||50.07141|-5.70314|GB
7293095|Sheviock|Sheviock||50.37234|-4.29568|GB
7300032|Sithney|Sithney||50.12559|-5.28642|GB
7300033|South Hill|South Hill||50.51954|-4.35537|GB
7294643|South Petherwin|South Petherwin||50.61038|-4.3962|GB
7300044|St Juliot|St Juliot||50.69408|-4.64946|GB
7294447|St Keyne|St Keyne||50.41885|-4.47667|GB
7294644|St. Agnes|St. Agnes||50.29511|-5.20599|GB
7293096|St. Allen|St. Allen||50.31837|-5.07382|GB
7294645|St. Anthony-in-Meneage|St. Anthony-in-Meneage||50.08062|-5.10686|GB
7294437|St. Austell|St. Austell||50.34312|-4.78182|GB
7293087|St. Austell Bay|St. Austell Bay||50.31877|-4.76964|GB
7300034|St. Blaise|St. Blaise||50.3523|-4.72473|GB
7294444|St. Breock|St. Breock||50.50082|-4.85037|GB
7293097|St. Breward|St. Breward||50.57195|-4.6483|GB
7298050|St. Buryan|St. Buryan||50.07546|-5.61608|GB
7300035|St. Cleer|St. Cleer||50.51148|-4.4721|GB
7294646|St. Clement|St. Clement||50.2711|-5.0248|GB
7294647|St. Clether|St. Clether||50.63371|-4.55873|GB
7300036|St. Columb Major|St. Columb Major||50.43877|-4.93603|GB
7300037|St. Day|St. Day||50.24017|-5.19703|GB
7298051|St. Dennis|St. Dennis||50.3873|-4.88324|GB
7294648|St. Dominick|St. Dominick||50.48416|-4.26075|GB
7293098|St. Endellion|St. Endellion||50.58048|-4.82645|GB
7294221|St. Enoder|St. Enoder||50.37261|-4.94843|GB
7300038|St. Erme|St. Erme||50.31935|-5.02448|GB
7300039|St. Erth|St. Erth||50.15777|-5.41611|GB
7294445|St. Ervan|St. Ervan||50.49395|-4.97302|GB
7294446|St. Eval|St. Eval||50.49121|-5.01185|GB
7293099|St. Ewe|St. Ewe||50.28421|-4.84205|GB
7300040|St. Gennys|St. Gennys||50.73703|-4.60984|GB
7294649|St. Germans|St. Germans||50.40836|-4.34878|GB
7300041|St. Gluvias|St. Gluvias||50.18666|-5.11853|GB
7293100|St. Goran|St. Goran||50.24863|-4.8145|GB
7293101|St. Hilary|St. Hilary||50.13202|-5.42649|GB
7294650|St. Issey|St. Issey||50.50952|-4.92265|GB
7293102|St. Ive|St. Ive||50.49203|-4.37907|GB
7300042|St. Ives|St. Ives||50.19681|-5.47874|GB
7300043|St. John|St. John||50.35018|-4.23948|GB
7294651|St. Just|St. Just||50.12646|-5.67779|GB
7293103|St. Just-in-Roseland|St. Just-in-Roseland||50.18323|-5.01475|GB
7294652|St. Keverne|St. Keverne||50.04455|-5.11565|GB
7293104|St. Kew|St. Kew||50.56123|-4.79945|GB
7300045|St. Levan|St. Levan||50.05253|-5.66173|GB
7299022|St. Mabyn|St. Mabyn||50.52154|-4.74302|GB
7300046|St. Martin-by-Looe|St. Martin-by-Looe||50.37305|-4.42262|GB
7294448|St. Martin-in-Meneage|St. Martin-in-Meneage||50.07027|-5.16641|GB
7300047|St. Mellion|St. Mellion||50.4736|-4.29733|GB
7294449|St. Merryn|St. Merryn||50.52696|-5.00044|GB
7300048|St. Mewan|St. Mewan||50.34231|-4.83406|GB
7300049|St. Michael Caerhays|St. Michael Caerhays||50.24496|-4.85828|GB
7300050|St. Michael Penkevil|St. Michael Penkevil||50.2546|-4.9884|GB
7294222|St. Michael's Mount|St. Michael's Mount||50.11902|-5.47632|GB
7300051|St. Minver Highlands|St. Minver Highlands||50.5637|-4.89072|GB
7294653|St. Minver Lowlands|St. Minver Lowlands||50.55169|-4.90758|GB
7293105|St. Neot|St. Neot||50.50803|-4.55531|GB
7294450|St. Newlyn East|St. Newlyn East||50.36853|-5.0413|GB
7294451|St. Pinnock|St. Pinnock||50.43596|-4.53904|GB
7294654|St. Sampson|St. Sampson||50.37205|-4.65624|GB
7297573|St. Stephen-in-Brannel|St. Stephen-in-Brannel||50.35243|-4.8786|GB
7294452|St. Stephens By Launceston Rural|St. Stephens By Launceston Rural||50.65112|-4.413|GB
7294655|St. Teath|St. Teath||50.6061|-4.74471|GB
7300067|St. Thomas the Apostle Rural|St. Thomas the Apostle Rural||50.63198|-4.40966|GB
7294656|St. Tudy|St. Tudy||50.55255|-4.73285|GB
7294453|St. Veep|St. Veep||50.37486|-4.60845|GB
7293106|St. Wenn|St. Wenn||50.45341|-4.87209|GB
7291868|St. Winnow|St. Winnow||50.40969|-4.6435|GB
7297574|Stithians|Stithians||50.18073|-5.18712|GB
7300068|Stokeclimsland|Stokeclimsland||50.5489|-4.31158|GB
7293107|Tintagel|Tintagel||50.65075|-4.73356|GB
7291401|Torpoint|Torpoint||50.37537|-4.21485|GB
7294454|Towednack|Towednack||50.19151|-5.52566|GB
7295217|Tregoney|Tregoney||50.26101|-4.93161|GB
7292026|Tremaine|Tremaine||50.68468|-4.50528|GB
7293108|Treneglos|Treneglos||50.67053|-4.54293|GB
7291044|Tresmeer|Tresmeer||50.66677|-4.50089|GB
7294223|Trevalga|Trevalga||50.66941|-4.7044|GB
7294455|Treverbyn|Treverbyn||50.37367|-4.78907|GB
7294657|Trewen|Trewen||50.62637|-4.46288|GB
7298372|Truro|Truro||50.26369|-5.05831|GB
7298373|Tywardreath and Par|Tywardreath and Par||50.36357|-4.68893|GB
7294658|Veryan|Veryan||50.22683|-4.90534|GB
7293109|Wadebridge|Wadebridge||50.51751|-4.83197|GB
7300069|Warbstow|Warbstow||50.69402|-4.5509|GB
7294659|Warleggan|Warleggan||50.49149|-4.60397|GB
7293110|Week St. Mary|Week St. Mary||50.74687|-4.49269|GB
7296737|Wendron|Wendron||50.14941|-5.22859|GB
7294660|Werrington|Werrington||50.67729|-4.3739|GB
7294456|Whitstone|Whitstone||50.75952|-4.45505|GB
7296213|Withiel|Withiel||50.44605|-4.82383|GB
7294457|Zennor|Zennor||50.18845|-5.57405|GB
2650629|County Durham|County Durham||54.7768|-1.57575|GB
7294661|Barforth|Barforth||54.53986|-1.7549|GB
7294458|Barnard Castle|Barnard Castle||54.54312|-1.91705|GB
7294662|Barningham|Barningham||54.48253|-1.89734|GB
7298374|Bearpark|Bearpark||54.78683|-1.62743|GB
7293111|Belmont|Belmont||54.7904|-1.53686|GB
7300070|Bishop Auckland|Bishop Auckland||54.65535|-1.68571|GB
7300071|Bishop Middleham|Bishop Middleham||54.67868|-1.4911|GB
7293115|Bolam|Bolam||54.59574|-1.7008|GB
7293116|Boldron|Boldron||54.53192|-1.96333|GB
7294459|Bournmoor|Bournmoor||54.8626|-1.53429|GB
7293117|Bowes|Bowes||54.49636|-2.05345|GB
7300072|Bradbury and the Isle|Bradbury and the Isle||54.64562|-1.50193|GB
7300073|Brancepeth|Brancepeth||54.73532|-1.63855|GB
2654894|Brandon and Byshottles|Brandon and Byshottles||54.75728|-1.66751|GB
7294663|Brignall|Brignall||54.50702|-1.90633|GB
7294664|Burnhope|Burnhope||54.8274|-1.6889|GB
7293118|Cassop-cum-Quarrington|Cassop-cum-Quarrington||54.73412|-1.5083|GB
7294665|Castle Eden|Castle Eden||54.73973|-1.34304|GB
7293119|Chilton|Chilton||54.66446|-1.54996|GB
7293120|Cleatlam|Cleatlam||54.56597|-1.82404|GB
7300074|Cockfield|Cockfield||54.61364|-1.8033|GB
7294460|Cornforth|Cornforth||54.69848|-1.50927|GB
7294461|Cornsay|Cornsay||54.7754|-1.76602|GB
7294462|Cotherstone|Cotherstone||54.55298|-2.06396|GB
7294666|Coxhoe|Coxhoe||54.72239|-1.50034|GB
7300075|Croxdale and Hett|Croxdale and Hett||54.72806|-1.56682|GB
7294463|Dalton-le-Dale|Dalton-le-Dale||54.82595|-1.37119|GB
7294464|Dene Valley|Dene Valley||54.65153|-1.65012|GB
7300076|Easington Colliery|Easington Colliery||54.79253|-1.32743|GB
7300077|Easington Village|Easington Village||54.78222|-1.36521|GB
7294667|Edmondbyers|Edmondbyers||54.83428|-2.00444|GB
7294465|Edmondsley|Edmondsley||54.85085|-1.64072|GB
7300078|Eggleston|Eggleston||54.63562|-1.99457|GB
7293121|Egglestone Abbey|Egglestone Abbey||54.52652|-1.90916|GB
7294466|Eldon|Eldon||54.64252|-1.62688|GB
7293122|Esh|Esh||54.79018|-1.69423|GB
7294467|Etherley|Etherley||54.62934|-1.69608|GB
7293123|Evenwood and Barony|Evenwood and Barony||54.6398|-1.77609|GB
7293124|Ferryhill|Ferryhill||54.68556|-1.54486|GB
7293125|Fishburn|Fishburn||54.68838|-1.4466|GB
7300079|Forest and Frith|Forest and Frith||54.68649|-2.2539|GB
7300080|Framwellgate Moor|Framwellgate Moor||54.8084|-1.56478|GB
7294468|Gainford|Gainford||54.55581|-1.74499|GB
7294668|Gilmonby|Gilmonby||54.5007|-2.00896|GB
7293126|Great Aycliffe|Great Aycliffe||54.61329|-1.56598|GB
7291124|Great Lumley|Great Lumley||54.83806|-1.54823|GB
7294469|Greater Willington|Greater Willington||54.7194|-1.68453|GB
7294470|Greencroft|Greencroft||54.84303|-1.75435|GB
7294471|Hamsterley|Hamsterley||54.66521|-1.8126|GB
7293127|Haswell|Haswell||54.78226|-1.42747|GB
7300081|Hawthorn|Hawthorn||54.80754|-1.35287|GB
7293128|Headlam|Headlam||54.5644|-1.72467|GB
7300082|Healeyfield|Healeyfield||54.83068|-1.8608|GB
7294669|Hedleyhope|Hedleyhope||54.764|-1.77153|GB
7294472|Hilton|Hilton||54.59416|-1.73671|GB
7294670|Holwick|Holwick||54.63083|-2.13523|GB
7300083|Hope|Hope||54.46685|-1.961|GB
7294671|Horden|Horden||54.77098|-1.31594|GB
7294473|Hunderthwaite|Hunderthwaite||54.56218|-2.09543|GB
7300084|Hunstanworth|Hunstanworth||54.82294|-2.10067|GB
7294474|Hutton Henry|Hutton Henry||54.71366|-1.35899|GB
7293129|Hutton Magna|Hutton Magna||54.49752|-1.80497|GB
7300085|Ingleton|Ingleton||54.58106|-1.73437|GB
7294475|Kelloe|Kelloe||54.71748|-1.46131|GB
7294672|Kimblesworth and Plawsworth|Kimblesworth and Plawsworth||54.82782|-1.59431|GB
7294225|LCPs of Brancepeth and Brandon and Byshottles|LCPs of Brancepeth and Brandon and Byshottles||54.74682|-1.71062|GB
7291409|LCPs of Hamsterley, Lynesack and Softley, and South Bedburn|LCPs of Hamsterley, Lynesack and Softley, and South Bedburn||54.68462|-1.89639|GB
7294703|LCPs of Stanhope, Wolsingham and Tow Law|LCPs of Stanhope, Wolsingham and Tow Law||54.76314|-1.94493|GB
7300086|Lanchester|Lanchester||54.8099|-1.80279|GB
7293130|Langleydale and Shotton|Langleydale and Shotton||54.60586|-1.89166|GB
7294673|Langton|Langton||54.57112|-1.75446|GB
7291045|Lartington|Lartington||54.53945|-2.05214|GB
7299014|Little Lumley|Little Lumley||54.84614|-1.51732|GB
7294688|Lunedale|Lunedale||54.60762|-2.19495|GB
7300087|Lynesack and Softley|Lynesack and Softley||54.63538|-1.85208|GB
7294476|Marwood|Marwood||54.57778|-1.93824|GB
7291046|Mickleton|Mickleton||54.57632|-2.11388|GB
7294477|Middleton-in-Teesdale|Middleton-in-Teesdale||54.62377|-2.07848|GB
7293131|Middridge|Middridge||54.62995|-1.60135|GB
7294478|Monk Hesleden|Monk Hesleden||54.73994|-1.28284|GB
7300088|Mordon|Mordon||54.61732|-1.49862|GB
7294479|Morton Tinmouth|Morton Tinmouth||54.58182|-1.70845|GB
7300089|Muggleswick|Muggleswick||54.8125|-1.95086|GB
7293132|Murton|Murton||54.8126|-1.39055|GB
7294480|Nesbitt|Nesbitt||54.72276|-1.29124|GB
7293133|Newbiggin|Newbiggin||54.66294|-2.13632|GB
7293134|North Lodge|North Lodge||54.87371|-1.55754|GB
7294689|Ouston|Ouston||54.88762|-1.59256|GB
7293136|Ovington|Ovington||54.52736|-1.79036|GB
7293137|Pelton|Pelton||54.86791|-1.61739|GB
7294693|Peterlee|Peterlee||54.75846|-1.32905|GB
7298052|Pittington|Pittington||54.79036|-1.47716|GB
7294694|Raby with Keverstone|Raby with Keverstone||54.59388|-1.8213|GB
7293138|Rokeby|Rokeby||54.51875|-1.88306|GB
7294482|Romaldkirk|Romaldkirk||54.58922|-2.05431|GB
7294695|Sacriston|Sacriston||54.82242|-1.63765|GB
7300091|Satley|Satley||54.77961|-1.83406|GB
7293139|Scargill|Scargill||54.48772|-1.97447|GB
7294483|Seaham|Seaham||54.8391|-1.34838|GB
7294224|Seaton with Slingley|Seaton with Slingley||54.83647|-1.39632|GB
7293140|Sedgefield|Sedgefield||54.65118|-1.41033|GB
7294696|Shadforth|Shadforth||54.76335|-1.45156|GB
7294484|Sheraton with Hulam|Sheraton with Hulam||54.70905|-1.32607|GB
7294485|Sherburn Village|Sherburn Village||54.77348|-1.50638|GB
7293141|Shildon|Shildon||54.63014|-1.6507|GB
7291125|Shincliffe|Shincliffe||54.75461|-1.52544|GB
7294486|Shotton|Shotton||54.75661|-1.38408|GB
7293142|South Bedburn|South Bedburn||54.67225|-1.88789|GB
7294487|South Hetton|South Hetton||54.79817|-1.41653|GB
7293143|Spennymoor|Spennymoor||54.69332|-1.62032|GB
7293144|Staindrop|Staindrop||54.58197|-1.82246|GB
7291402|Stanhope|Stanhope||54.73885|-2.13032|GB
7294697|Stanley|Stanley||54.875|-1.71376|GB
7293145|Startforth|Startforth||54.53605|-1.93259|GB
7294488|Streatlam and Stainton|Streatlam and Stainton||54.57233|-1.87738|GB
7291403|Thornley|Thornley||54.7443|-1.44088|GB
7291047|Tow Law|Tow Law||54.74541|-1.81339|GB
7294698|Trimdon|Trimdon||54.70057|-1.42181|GB
7294699|Trimdon Foundry|Trimdon Foundry||54.72626|-1.41348|GB
7294700|Urpeth|Urpeth||54.88375|-1.62859|GB
7291404|Wackerfield|Wackerfield||54.59177|-1.76081|GB
7298053|Waldridge|Waldridge||54.84197|-1.60668|GB
7293146|West Auckland|West Auckland||54.62975|-1.72046|GB
7294701|West Rainton|West Rainton||54.81875|-1.51119|GB
7293147|Westwick|Westwick||54.53844|-1.88306|GB
7294702|Wheatley Hill|Wheatley Hill||54.73724|-1.40915|GB
7298054|Whorlton|Whorlton||54.54107|-1.83671|GB
7291405|Windlestone|Windlestone||54.64616|-1.57471|GB
7291406|Wingate|Wingate||54.71305|-1.39279|GB
7294489|Winston|Winston||54.54693|-1.80533|GB
7291407|Witton Gilbert|Witton Gilbert||54.80874|-1.62731|GB
7293148|Witton-le-Wear|Witton-le-Wear||54.68605|-1.76605|GB
7291408|Wolsingham|Wolsingham||54.73653|-1.86922|GB
7293149|Woodland|Woodland||54.63304|-1.92234|GB
7293150|Wycliffe with Thorpe|Wycliffe with Thorpe||54.51581|-1.8191|GB
3333139|Coventry|Coventry||52.41667|-1.5|GB
7300102|Allesley|Allesley||52.43895|-1.58084|GB
7294755|Keresley|Keresley||52.45365|-1.53584|GB
2651712|Cumbria|Cumbria||54.58333|-2.83333|GB
7290662|Allerdale District|Allerdale District||54.7088|-3.28017|GB
7290663|Barrow-in-Furness District|Barrow-in-Furness District||54.12885|-3.22326|GB
7290664|Carlisle District|Carlisle District||54.9825|-2.83114|GB
7290665|Copeland District|Copeland District||54.38747|-3.37604|GB
7290666|Eden District|Eden District||54.60548|-2.62522|GB
7290667|South Lakeland District|South Lakeland District||54.27191|-2.79018|GB
3333141|Darlington|Darlington||54.53333|-1.53333|GB
7293223|Archdeacon Newton|Archdeacon Newton||54.55518|-1.60127|GB
7300174|Barmpton|Barmpton||54.56199|-1.50838|GB
7298118|Bishopton|Bishopton||54.58322|-1.43919|GB
7294804|Brafferton|Brafferton||54.58012|-1.52669|GB
7298119|Coatham Mundeville|Coatham Mundeville||54.57609|-1.58011|GB
7290982|Denton|Denton||54.56866|-1.66543|GB
7300175|East and West Newbiggin|East and West Newbiggin||54.56328|-1.44077|GB
7298120|Great Burdon|Great Burdon||54.53902|-1.50648|GB
7293224|Great Stainton|Great Stainton||54.59068|-1.48395|GB
7294805|Heighington|Heighington||54.59797|-1.63309|GB
7300176|High Coniscliffe|High Coniscliffe||54.54113|-1.64415|GB
7300177|Houghton Le Side|Houghton Le Side||54.59165|-1.66065|GB
7294806|Hurworth|Hurworth||54.49201|-1.5481|GB
7300178|Killerby|Killerby||54.57471|-1.69816|GB
7298121|Little Stainton|Little Stainton||54.57536|-1.4745|GB
7300179|Low Coniscliffe and Merrybent|Low Coniscliffe and Merrybent||54.52618|-1.61823|GB
7300180|Low Dinsdale|Low Dinsdale||54.50088|-1.47899|GB
7298122|Middleton St. George|Middleton St. George||54.5102|-1.44709|GB
7300181|Morton Palms|Morton Palms||54.53055|-1.4946|GB
7294807|Neasham|Neasham||54.49401|-1.492|GB
7298123|Piercebridge|Piercebridge||54.5449|-1.68854|GB
7294808|Sadberge|Sadberge||54.54541|-1.46801|GB
7293225|Sockburn|Sockburn||54.46375|-1.46477|GB
7297965|Summerhouse|Summerhouse||54.56963|-1.69129|GB
7300182|Walworth|Walworth||54.56652|-1.63673|GB
7293226|Whessoe|Whessoe||54.5623|-1.56195|GB
3333142|Derby|Derby||52.9207|-1.47217|GB
2651346|Derbyshire|Derbyshire||53.16667|-1.58333|GB
7290668|Amber Valley District|Amber Valley District||53.02876|-1.45726|GB
2655241|Bolsover District|Bolsover District||53.19694|-1.27237|GB
7290669|Chesterfield District|Chesterfield District||53.25544|-1.3912|GB
7290670|Derbyshire Dales District|Derbyshire Dales District||53.12999|-1.70547|GB
7290671|Erewash District|Erewash District||52.93766|-1.3576|GB
7290672|High Peak District|High Peak District||53.3673|-1.84251|GB
2641373|North East Derbyshire|North East Derbyshire||53.2|-1.5|GB
7290673|South Derbyshire District|South Derbyshire District||52.822|-1.53296|GB
2651292|Devon|Devon||50.75|-3.75|GB
7290674|East Devon District|East Devon District||50.75632|-3.23487|GB
7290675|Exeter District|Exeter District||50.71677|-3.50945|GB
7290676|Mid Devon District|Mid Devon District||50.86798|-3.53294|GB
7290677|North Devon District|North Devon District||51.0611|-3.92728|GB
2637414|South Hams District|South Hams District||50.4|-3.83333|GB
7290678|Teignbridge District|Teignbridge District||50.612|-3.65167|GB
2635640|Torridge District|Torridge District||50.95|-4.4|GB
7290679|West Devon District|West Devon District||50.65144|-4.03255|GB
2638918|District of Rutland|District of Rutland||52.66667|-0.66667|GB
7301042|Ashwell|Ashwell||52.71227|-0.72883|GB
7301043|Ayston|Ayston||52.60298|-0.72817|GB
7300900|Barleythorpe|Barleythorpe||52.67866|-0.75284|GB
7297071|Barrow|Barrow||52.72766|-0.67791|GB
7292225|Barrowden|Barrowden||52.59149|-0.60891|GB
7297072|Beaumont Chase|Beaumont Chase||52.5838|-0.75445|GB
7297736|Belton-in-Rutland|Belton-in-Rutland||52.60367|-0.79514|GB
7292226|Bisbrooke|Bisbrooke||52.58807|-0.68873|GB
7292227|Braunston-in-Rutland|Braunston-in-Rutland||52.65322|-0.77541|GB
7299052|Brooke|Brooke||52.6422|-0.75138|GB
7297073|Burley|Burley||52.68652|-0.69106|GB
7301044|Caldecott|Caldecott||52.53846|-0.71948|GB
7292228|Clipsham|Clipsham||52.73207|-0.56247|GB
7301035|Cottesmore|Cottesmore||52.71592|-0.6686|GB
7301094|Edith Weston|Edith Weston||52.63768|-0.62092|GB
7296053|Egleton|Egleton||52.6572|-0.71309|GB
7292229|Empingham|Empingham||52.67496|-0.59276|GB
7292230|Essendine|Essendine||52.69655|-0.45319|GB
7290956|Exton|Exton||52.68428|-0.63655|GB
7300633|Glaston|Glaston||52.59556|-0.67202|GB
7292231|Great Casterton|Great Casterton||52.68421|-0.52694|GB
7292232|Greetham|Greetham||52.72231|-0.60785|GB
7297074|Gunthorpe|Gunthorpe||52.64145|-0.71198|GB
7297075|Hambleton|Hambleton||52.65179|-0.66361|GB
7301630|Horn|Horn||52.69607|-0.59201|GB
7301398|Ketton|Ketton||52.6316|-0.54963|GB
7301399|Langham|Langham||52.69163|-0.75514|GB
7297079|Leighfield|Leighfield||52.62696|-0.78787|GB
7301400|Little Casterton|Little Casterton||52.67545|-0.49785|GB
7301401|Lyddington|Lyddington||52.56033|-0.71799|GB
7292233|Lyndon|Lyndon||52.62782|-0.65606|GB
7301402|Manton|Manton||52.6325|-0.69684|GB
7301049|Market Overton|Market Overton||52.74421|-0.68096|GB
7297080|Martinsthorpe|Martinsthorpe||52.63162|-0.72553|GB
7292030|Morcott|Morcott||52.598|-0.64588|GB
7292234|Normanton|Normanton||52.6464|-0.60355|GB
7292235|North Luffenham|North Luffenham||52.62148|-0.60941|GB
7301050|Oakham|Oakham||52.66669|-0.75006|GB
7301051|Pickworth|Pickworth||52.71071|-0.53687|GB
7301403|Pilton|Pilton||52.61806|-0.65101|GB
7292236|Preston|Preston||52.61514|-0.71593|GB
7301052|Ridlington|Ridlington||52.61394|-0.75532|GB
7292237|Ryhall|Ryhall||52.6898|-0.47419|GB
7297081|Seaton|Seaton||52.5742|-0.67392|GB
7292238|South Luffenham|South Luffenham||52.60513|-0.60392|GB
7292239|Stoke Dry|Stoke Dry||52.56001|-0.7448|GB
7292240|Stretton|Stretton||52.73997|-0.60862|GB
7301404|Teigh|Teigh||52.7335|-0.72908|GB
7292241|Thistleton|Thistleton||52.74886|-0.64171|GB
7297076|Thorpe By Water|Thorpe By Water||52.55855|-0.68812|GB
7293931|Tickencote|Tickencote||52.67732|-0.54945|GB
7301045|Tinwell|Tinwell||52.65617|-0.52671|GB
7297077|Tixover|Tixover||52.59701|-0.56091|GB
7301046|Uppingham|Uppingham||52.58622|-0.72821|GB
7301047|Wardley|Wardley||52.59188|-0.76848|GB
7301048|Whissendine|Whissendine||52.72266|-0.78206|GB
7297078|Whitwell|Whitwell||52.66662|-0.64249|GB
7292242|Wing|Wing||52.61374|-0.68209|GB
3333143|Doncaster|Doncaster||53.5|-1.08333|GB
7294972|Adwick upon Dearne|Adwick upon Dearne||53.50856|-1.29311|GB
7293377|Armthorpe|Armthorpe||53.5344|-1.03641|GB
7300405|Askern|Askern||53.61577|-1.14818|GB
7291073|Auckley|Auckley||53.49396|-1.01764|GB
7291235|Austerfield|Austerfield||53.45753|-1.00972|GB
7291054|Barnburgh|Barnburgh||53.52228|-1.26577|GB
7291074|Barnby Dun with Kirk Sandall|Barnby Dun with Kirk Sandall||53.57906|-1.06792|GB
7300406|Bawtry|Bawtry||53.44079|-1.03754|GB
7291236|Blaxton|Blaxton||53.50361|-0.97045|GB
7291237|Braithwell|Braithwell||53.44449|-1.21779|GB
7291075|Brodsworth|Brodsworth||53.55564|-1.21151|GB
7300407|Burghwallis|Burghwallis||53.60015|-1.18741|GB
7291076|Cadeby|Cadeby||53.49943|-1.22093|GB
7293378|Cantley|Cantley||53.50915|-1.02828|GB
7296545|Clayton with Frickley|Clayton with Frickley||53.56744|-1.31595|GB
7291077|Conisbrough Parks|Conisbrough Parks||53.4701|-1.22465|GB
7300408|Denaby|Denaby||53.48414|-1.28136|GB
7293379|Edenthorpe|Edenthorpe||53.5518|-1.06099|GB
7291078|Edlington|Edlington||53.47339|-1.18293|GB
7293380|Fenwick|Fenwick||53.6369|-1.10118|GB
7291238|Finningley|Finningley||53.49009|-0.9778|GB
7293381|Fishlake|Fishlake||53.61912|-1.02342|GB
7296615|Hampole|Hampole||53.5944|-1.23439|GB
7296049|Hatfield|Hatfield||53.56158|-0.96803|GB
7291239|Hickleton|Hickleton||53.53917|-1.26957|GB
7291079|High Melton|High Melton||53.51533|-1.23285|GB
7297599|Hooton Pagnell|Hooton Pagnell||53.56859|-1.27286|GB
7297771|Kirk Bramwith|Kirk Bramwith||53.61067|-1.05675|GB
7293382|Loversall|Loversall||53.48643|-1.11744|GB
7300409|Marr|Marr||53.53866|-1.22317|GB
7297772|Moss|Moss||53.61082|-1.09167|GB
7297773|Norton|Norton||53.62165|-1.18327|GB
7291240|Owston|Owston||53.59381|-1.15218|GB
7293383|Rossington|Rossington||53.47287|-1.06559|GB
7293384|Sprotbrough and Cusworth|Sprotbrough and Cusworth||53.51759|-1.17938|GB
7291241|Stainforth|Stainforth||53.59761|-1.02196|GB
7291242|Stainton|Stainton||53.44105|-1.16284|GB
7293385|Sykehouse|Sykehouse||53.64526|-1.03278|GB
7300410|Thorne|Thorne||53.62119|-0.92887|GB
7300411|Thorpe in Balne|Thorpe in Balne||53.58581|-1.11217|GB
7291549|Tickhill|Tickhill||53.43697|-1.10187|GB
7291243|Wadworth|Wadworth||53.47127|-1.12983|GB
7291550|Warmsworth|Warmsworth||53.49974|-1.17933|GB
2651079|Dorset|Dorset||50.75|-2.33333|GB
7290681|East Dorset District|East Dorset District||50.8669|-1.976|GB
7290682|North Dorset District|North Dorset District||50.91932|-2.25879|GB
7290683|Purbeck District|Purbeck District||50.68418|-2.12398|GB
7290684|West Dorset District|West Dorset District||50.79455|-2.61023|GB
7290685|Weymouth and Portland District|Weymouth and Portland District||50.60935|-2.45539|GB
3333144|Dudley|Dudley||52.5|-2.11667|GB
2650345|East Riding of Yorkshire|East Riding of Yorkshire||53.91667|-0.5|GB
7300431|Airmyn|Airmyn||53.70053|-0.91413|GB
7295033|Aldbrough|Aldbrough||53.82727|-0.12522|GB
7293446|Allerthorpe|Allerthorpe||53.91507|-0.82536|GB
7298403|Anlaby with Anlaby Common|Anlaby with Anlaby Common||53.74209|-0.43756|GB
7300432|Asselby|Asselby||53.74212|-0.90773|GB
7296487|Atwick|Atwick||53.93844|-0.20263|GB
7298430|Bainton|Bainton||53.95997|-0.5267|GB
7293337|Barmby Moor|Barmby Moor||53.93157|-0.82508|GB
7296488|Barmby on the Marsh|Barmby on the Marsh||53.74694|-0.95052|GB
7297986|Barmston|Barmston||54.03059|-0.24111|GB
7293447|Beeford|Beeford||53.96767|-0.2834|GB
7293448|Bempton|Bempton||54.1347|-0.18686|GB
7300433|Beswick|Beswick||53.92335|-0.45148|GB
7298472|Beverley|Beverley||53.84327|-0.42465|GB
7295035|Bewholme|Bewholme||53.94616|-0.23948|GB
7298431|Bielby|Bielby||53.88311|-0.79442|GB
7293449|Bilton|Bilton||53.78312|-0.23939|GB
7293450|Bishop Burton|Bishop Burton||53.84139|-0.50904|GB
7295045|Bishop Wilton|Bishop Wilton||53.98219|-0.79778|GB
7299641|Blacktoft|Blacktoft||53.72365|-0.71613|GB
7300434|Boynton|Boynton||54.10105|-0.25786|GB
7300435|Brandesburton|Brandesburton||53.9208|-0.32078|GB
7296622|Brantingham|Brantingham||53.74916|-0.58014|GB
7300469|Bridlington|Bridlington||54.09471|-0.19542|GB
7297987|Broomfleet|Broomfleet||53.73367|-0.66357|GB
7295047|Bubwith|Bubwith||53.80829|-0.89993|GB
7298432|Bugthorpe|Bugthorpe||54.01022|-0.81835|GB
7293451|Burstwick|Burstwick||53.74666|-0.1455|GB
7293452|Burton Agnes|Burton Agnes||54.04391|-0.30116|GB
7293453|Burton Constable|Burton Constable||53.82373|-0.19157|GB
7298433|Burton Fleming|Burton Fleming||54.13304|-0.34015|GB
7295048|Burton Pidsea|Burton Pidsea||53.75509|-0.10199|GB
7298434|Carnaby|Carnaby||54.06532|-0.24973|GB
7295049|Catton|Catton||53.96492|-0.8969|GB
7296624|Catwick|Catwick||53.89124|-0.276|GB
7295050|Cherry Burton|Cherry Burton||53.86236|-0.5202|GB
7298435|Coniston|Coniston||53.80157|-0.22903|GB
7298436|Cottam|Cottam||54.06804|-0.50614|GB
7298473|Cottingham|Cottingham||53.78507|-0.41985|GB
7293454|Cottingwith|Cottingwith||53.87965|-0.91661|GB
7293455|Dalton Holme|Dalton Holme||53.89973|-0.55162|GB
7295051|Driffield|Driffield||54.0103|-0.43202|GB
7295052|Easington|Easington||53.62927|0.1107|GB
7300436|East Garton|East Garton||53.79655|-0.08252|GB
7300437|Eastrington|Eastrington||53.76795|-0.80346|GB
7295053|Ellerby|Ellerby||53.8259|-0.24091|GB
7293456|Ellerker|Ellerker||53.74627|-0.61117|GB
7298437|Ellerton|Ellerton||53.84871|-0.90523|GB
7298438|Elloughton-cum-Brough|Elloughton-cum-Brough||53.72708|-0.56777|GB
7300438|Elstronwick|Elstronwick||53.76991|-0.13927|GB
7298439|Etton|Etton||53.87765|-0.54198|GB
7298440|Everingham|Everingham||53.8681|-0.761|GB
7295054|Fangfoss|Fangfoss||53.96415|-0.83093|GB
7298441|Fimber|Fimber||54.04416|-0.62762|GB
7293457|Flamborough|Flamborough||54.12192|-0.11087|GB
7293458|Foggathorpe|Foggathorpe||53.83545|-0.85642|GB
7293459|Foston|Foston||53.97994|-0.3333|GB
7293460|Fridaythorpe|Fridaythorpe||54.02298|-0.66002|GB
7298926|Full Sutton|Full Sutton||53.98477|-0.86574|GB
7300439|Garton|Garton||54.02348|-0.50407|GB
7300440|Gilberdyke|Gilberdyke||53.76057|-0.74504|GB
7300441|Goodmanham|Goodmanham||53.88703|-0.62707|GB
7295046|Goole Fields|Goole Fields||53.66572|-0.87757|GB
7296623|Goole Township|Goole Township||53.71276|-0.87449|GB
7293461|Gowdall|Gowdall||53.69395|-1.06288|GB
7300442|Grindale|Grindale||54.1265|-0.26808|GB
7300443|Halsham|Halsham||53.73016|-0.06165|GB
7300444|Harpham|Harpham||54.03089|-0.34483|GB
7296042|Hatfield|Hatfield||53.87402|-0.19238|GB
7300445|Hayton|Hayton||53.89975|-0.73321|GB
7295055|Hedon|Hedon||53.7403|-0.19429|GB
7298442|Hessle|Hessle||53.72109|-0.44318|GB
7295056|Hollym|Hollym||53.704|0.03746|GB
7300446|Holme upon Spalding Moor|Holme upon Spalding Moor||53.81775|-0.76452|GB
7295057|Holmpton|Holmpton||53.68466|0.06269|GB
7290789|Hook|Hook||53.72198|-0.86082|GB
7298443|Hornsea|Hornsea||53.91148|-0.181|GB
7298444|Hotham|Hotham||53.79929|-0.66595|GB
7298445|Howden|Howden||53.74751|-0.86998|GB
7298006|Huggate|Huggate||53.99385|-0.65541|GB
7298446|Humbleton|Humbleton||53.79702|-0.15588|GB
7300447|Hutton Cranswick|Hutton Cranswick||53.96728|-0.43706|GB
7300448|Kelk|Kelk||54.01841|-0.31968|GB
7293462|Keyingham|Keyingham||53.69898|-0.12545|GB
7295058|Kilham|Kilham||54.07741|-0.40488|GB
7298447|Kilpin|Kilpin||53.72647|-0.82921|GB
7295059|Kirby Underdale|Kirby Underdale||54.01473|-0.75744|GB
7300470|Kirk Ella|Kirk Ella||53.75046|-0.45984|GB
7293463|Kirkburn|Kirkburn||53.98512|-0.48775|GB
7293464|Langtoft|Langtoft||54.08983|-0.45711|GB
7295060|Laxton|Laxton||53.71581|-0.80188|GB
7295061|Leconfield|Leconfield||53.88346|-0.4376|GB
7298448|Leven|Leven||53.89423|-0.34448|GB
7295062|Lockington|Lockington||53.90358|-0.46661|GB
7300449|Londesborough|Londesborough||53.90154|-0.6694|GB
7296546|Lund|Lund||53.91546|-0.56477|GB
7300450|Mappleton|Mappleton||53.87133|-0.14152|GB
7298449|Market Weighton|Market Weighton||53.85613|-0.64864|GB
7300451|Melbourne|Melbourne||53.88079|-0.85699|GB
7298450|Middleton|Middleton||53.92598|-0.58099|GB
7297988|Millington|Millington||53.97509|-0.73176|GB
7296228|Molescroft|Molescroft||53.85698|-0.44588|GB
7296229|Nafferton|Nafferton||54.02116|-0.41262|GB
7300452|Newbald|Newbald||53.82477|-0.60081|GB
7296024|Newport|Newport||53.7648|-0.69815|GB
7298451|Newton on Derwent|Newton on Derwent||53.93622|-0.88427|GB
7300453|North Cave|North Cave||53.77459|-0.6529|GB
7298452|North Dalton|North Dalton||53.95744|-0.59641|GB
7300454|North Ferriby|North Ferriby||53.71259|-0.49107|GB
7296230|North Frodingham|North Frodingham||53.95799|-0.31808|GB
7298453|Nunburnholme|Nunburnholme||53.93049|-0.71558|GB
7296231|Ottringham|Ottringham||53.69498|-0.08591|GB
7295063|Patrington|Patrington||53.68878|-0.02582|GB
7296232|Paull|Paull||53.68467|-0.17691|GB
7295064|Pocklington|Pocklington||53.92428|-0.7758|GB
7295065|Pollington|Pollington||53.67064|-1.07192|GB
7296233|Preston|Preston||53.7517|-0.21174|GB
7300455|Rawcliffe|Rawcliffe||53.68581|-0.94534|GB
7296234|Reedness|Reedness||53.66945|-0.8128|GB
7295066|Rimswell|Rimswell||53.73183|-0.0059|GB
7298454|Rise|Rise||53.86287|-0.2505|GB
7300456|Riston|Riston||53.85895|-0.29107|GB
7298455|Roos|Roos||53.76783|-0.05071|GB
7300457|Routh|Routh||53.86929|-0.34394|GB
7300458|Rowley|Rowley||53.79074|-0.50137|GB
7295067|Rudston|Rudston||54.0965|-0.34135|GB
7298456|Sancton|Sancton||53.83933|-0.62369|GB
7298457|Seaton|Seaton||53.90495|-0.23627|GB
7298458|Seaton Ross|Seaton Ross||53.8503|-0.81955|GB
7296235|Shipton Thorpe|Shipton Thorpe||53.86997|-0.70531|GB
7300459|Sigglesthorne|Sigglesthorne||53.8899|-0.24146|GB
7300460|Skeffling|Skeffling||53.63853|0.06539|GB
7296236|Skerne and Wansford|Skerne and Wansford||53.98465|-0.39604|GB
7298459|Skidby|Skidby||53.78081|-0.46954|GB
7295068|Skipsea|Skipsea||53.97712|-0.22815|GB
7298927|Skirlaugh|Skirlaugh||53.83991|-0.26199|GB
7298460|Skirpenbeck|Skirpenbeck||54.0065|-0.87615|GB
7295069|Sledmere|Sledmere||54.06054|-0.56685|GB
7296237|Snaith and Cowick|Snaith and Cowick||53.67434|-0.98106|GB
7298461|South Cave|South Cave||53.76357|-0.60952|GB
7298462|South Cliffe|South Cliffe||53.81721|-0.6848|GB
7298463|Spaldington|Spaldington||53.79101|-0.83033|GB
7300461|Sproatley|Sproatley||53.79174|-0.19151|GB
7297989|Stamford Bridge|Stamford Bridge||53.98917|-0.9005|GB
7300462|Sunk Island|Sunk Island||53.64852|-0.04967|GB
7300463|Sutton upon Derwent|Sutton upon Derwent||53.91286|-0.90784|GB
7300464|Swanland|Swanland||53.74136|-0.49316|GB
7291293|Swine|Swine||53.81678|-0.28796|GB
7300465|Swinefleet|Swinefleet||53.66947|-0.83448|GB
7290820|Thorngumbald|Thorngumbald||53.71127|-0.1669|GB
7297354|Thornton|Thornton||53.9035|-0.85072|GB
7298464|Thwing|Thwing||54.12325|-0.41691|GB
7298465|Tibthorpe|Tibthorpe||53.99357|-0.55704|GB
7293465|Tickton|Tickton||53.85945|-0.38859|GB
7300466|Twin Rivers|Twin Rivers||53.6748|-0.75711|GB
7293466|Ulrome|Ulrome||53.99969|-0.24727|GB
7298466|Walkington|Walkington||53.81805|-0.50023|GB
7298467|Warter|Warter||53.94894|-0.67827|GB
7298468|Watton|Watton||53.93174|-0.43839|GB
7295070|Wawne|Wawne||53.82033|-0.32796|GB
7300467|Welton|Welton||53.72729|-0.52958|GB
7295071|Welwick|Welwick||53.6551|0.02734|GB
7293467|Wetwang|Wetwang||54.01922|-0.60402|GB
7295072|Wilberfoss|Wilberfoss||53.95186|-0.87392|GB
7298474|Willerby|Willerby||53.75999|-0.43069|GB
7300468|Withernsea|Withernsea||53.73099|0.03454|GB
7295073|Withernwick|Withernwick||53.84822|-0.18205|GB
7298469|Wold Newton|Wold Newton||54.15558|-0.40323|GB
7298470|Woodmansey|Woodmansey||53.81491|-0.40438|GB
7298471|Wressle|Wressle||53.77032|-0.89554|GB
7296625|Yapham|Yapham||53.95497|-0.80483|GB
2650328|East Sussex|East Sussex||50.91667|0.33333|GB
7290686|Eastbourne District|Eastbourne District||50.77266|0.27629|GB
7290687|Hastings District|Hastings District||50.86728|0.58145|GB
7290688|Lewes District|Lewes District||50.87771|0.01088|GB
2639096|Rother District|Rother District||50.95|0.65|GB
2634637|Wealden District|Wealden District||50.91667|0.16667|GB
2649889|Essex|Essex||51.83333|0.58333|GB
7290689|Basildon District|Basildon District||51.59002|0.47361|GB
7290690|Braintree District|Braintree District||51.91824|0.58263|GB
7290691|Brentwood District|Brentwood District||51.64015|0.29577|GB
7290692|Castle Point District|Castle Point District||51.54399|0.60774|GB
7290541|Chelmsford District|Chelmsford District||51.73656|0.49226|GB
7290542|Colchester District|Colchester District||51.87094|0.86483|GB
7290543|Epping Forest District|Epping Forest District||51.71282|0.16555|GB
7290544|Harlow District|Harlow District||51.76547|0.11266|GB
7290545|Maldon District|Maldon District||51.72328|0.78731|GB
2639266|Rochford|Rochford||51.58371|0.81641|GB
7290546|Tendring District|Tendring District||51.86311|1.11561|GB
7290547|Uttlesford District|Uttlesford District||51.92952|0.29535|GB
2648772|Gateshead|Gateshead||54.93333|-1.66667|GB
7298561|Lamesley|Lamesley||54.90718|-1.6191|GB
2648402|Gloucestershire|Gloucestershire||51.83333|-2.16667|GB
7290548|Cheltenham|Cheltenham||51.89813|-2.07522|GB
7290549|Cotswold District|Cotswold District||51.84462|-1.968|GB
7290550|Forest of Dean District|Forest of Dean District||51.80479|-2.53647|GB
7290551|Gloucester District|Gloucester District||51.84598|-2.23795|GB
2636617|Stroud|Stroud||51.75|-2.2|GB
7290552|Tewkesbury District|Tewkesbury District||51.9345|-2.07582|GB
2648110|Greater London|Greater London||51.5|-0.16667|GB
3333120|Barking and Dagenham|Barking and Dagenham||51.55|0.11667|GB
3333121|Barnet|Barnet||51.65736|-0.21423|GB
3333124|Bexley|Bexley||51.41667|0.13333|GB
3333132|Brent|Brent||51.55551|-0.30281|GB
3333135|Bromley|Bromley||51.41475|0.01167|GB
3333138|Camden|Camden||51.54281|-0.15942|GB
2643744|City of London|City of London||51.51334|-0.08901|GB
3333218|City of Westminster|City of Westminster||51.51291|-0.15895|GB
3333140|Croydon|Croydon||51.37664|-0.10574|GB
3333145|Ealing|Ealing||51.51282|-0.3023|GB
3333146|Enfield|Enfield||51.64875|-0.0974|GB
3333147|Greenwich|Greenwich||51.45|0.05|GB
3333148|Hackney|Hackney||51.53333|-0.08333|GB
3333149|Hammersmith and Fulham|Hammersmith and Fulham||51.5|-0.25|GB
3333150|Haringey|Haringey||51.5879|-0.1063|GB
3333151|Harrow|Harrow||51.56667|-0.33333|GB
3333153|Havering|Havering||51.55|0.21667|GB
3333154|Hillingdon|Hillingdon||51.5|-0.45|GB
3333155|Hounslow|Hounslow||51.4677|-0.36469|GB
3333156|Islington|Islington||51.54702|-0.10944|GB
3333163|Lambeth|Lambeth||51.41667|-0.13333|GB
3333166|Lewisham|Lewisham||51.45355|-0.018|GB
3333171|Merton|Merton||51.4108|-0.18919|GB
2641639|Newham|Newham||51.51667|0.03333|GB
3333185|Redbridge|Redbridge||51.56667|0.08333|GB
3333187|Richmond upon Thames|Richmond upon Thames||51.41667|-0.33333|GB
3333157|Royal Kensington and Chelsea|Royal Kensington and Chelsea||51.50299|-0.19314|GB
3333160|Royal Kingston upon Thames|Royal Kingston upon Thames||51.36667|-0.28333|GB
3333200|Southwark|Southwark||51.46716|-0.0606|GB
3333206|Sutton|Sutton||51.35835|-0.1926|GB
2635594|Tower Hamlets|Tower Hamlets||51.51667|-0.05|GB
3333214|Waltham Forest|Waltham Forest||51.56667|-0.03333|GB
3333215|Wandsworth|Wandsworth||51.45719|-0.19089|GB
2647554|Hampshire|Hampshire||51.0|-1.25|GB
7290553|Basingstoke and Deane District|Basingstoke and Deane District||51.25821|-1.21602|GB
7290554|East Hampshire District|East Hampshire District||51.03945|-0.93676|GB
7290555|Eastleigh District|Eastleigh District||50.92263|-1.32746|GB
7290556|Fareham District|Fareham District||50.8535|-1.21114|GB
7290557|Gosport District|Gosport District||50.8062|-1.16165|GB
7290558|Hart District|Hart District||51.27564|-0.8811|GB
7290559|Havant District|Havant District||50.83987|-0.9892|GB
2641648|New Forest|New Forest||50.83333|-1.6|GB
7290560|Rushmoor District|Rushmoor District||51.27474|-0.76692|GB
7290561|Test Valley District|Test Valley District||51.13326|-1.50004|GB
7290562|Winchester District|Winchester District||51.02551|-1.24375|GB
3333152|Hartlepool|Hartlepool||54.66667|-1.25|GB
7298693|Brierton|Brierton||54.6614|-1.26813|GB
7290723|Claxton|Claxton||54.65111|-1.26341|GB
7295796|Dalton Piercy|Dalton Piercy||54.673|-1.28085|GB
7299066|Elwick|Elwick||54.66468|-1.32443|GB
7293690|Greatham|Greatham||54.63837|-1.24555|GB
7295797|Hart|Hart||54.70869|-1.27629|GB
7299221|Headland|Headland||54.70084|-1.19289|GB
7299220|Newton Bewley|Newton Bewley||54.63271|-1.27504|GB
2647071|Herefordshire|Herefordshire||52.08333|-2.75|GB
7291410|Abbey Dore|Abbey Dore||51.98642|-2.88382|GB
7298055|Aconbury|Aconbury||51.99432|-2.7164|GB
7293151|Acton Beauchamp|Acton Beauchamp||52.14845|-2.44888|GB
7294704|Adforton|Adforton||52.33535|-2.87665|GB
7294705|Allensmore|Allensmore||52.01486|-2.79703|GB
7294690|Almeley|Almeley||52.15936|-2.97089|GB
7294691|Ashperton|Ashperton||52.07365|-2.52049|GB
7293135|Aston Ingham|Aston Ingham||51.90578|-2.46903|GB
7294481|Avenbury|Avenbury||52.1631|-2.51076|GB
7300090|Aylton|Aylton||52.03301|-2.49292|GB
7294692|Aymestrey|Aymestrey||52.29535|-2.84596|GB
7291411|Bacton|Bacton||51.99208|-2.91853|GB
7294706|Ballingham|Ballingham||51.98029|-2.62534|GB
7294491|Bartestree|Bartestree||52.06713|-2.62734|GB
7294542|Belmont Rural|Belmont Rural||52.04313|-2.75151|GB
7294707|Birley with Upper Hill|Birley with Upper Hill||52.17314|-2.78705|GB
7294492|Bishop's Frome|Bishop's Frome||52.13209|-2.49631|GB
7291412|Bishopstone|Bishopstone||52.08118|-2.85159|GB
7291413|Blakemere|Blakemere||52.06002|-2.92999|GB
7291414|Bodenham|Bodenham||52.15653|-2.67155|GB
7294493|Bolstone|Bolstone||51.99151|-2.66042|GB
7294494|Bosbury|Bosbury||52.08942|-2.45122|GB
7294708|Brampton Abbotts|Brampton Abbotts||51.93262|-2.57589|GB
7293152|Brampton Bryan|Brampton Bryan||52.33399|-2.94986|GB
7293153|Bredenbury|Bredenbury||52.19771|-2.55191|GB
7293154|Bredwardine|Bredwardine||52.09867|-2.98909|GB
7294709|Breinton|Breinton||52.06065|-2.76986|GB
7294495|Bridge Sollers|Bridge Sollers||52.07321|-2.85351|GB
7294496|Bridstow|Bridstow||51.91934|-2.61342|GB
7293155|Brilley|Brilley||52.13921|-3.09016|GB
7294497|Brimfield|Brimfield||52.30227|-2.69543|GB
7297940|Brinsop and Wormsley|Brinsop and Wormsley||52.11507|-2.82842|GB
7291417|Brobury with Monnington on Wye|Brobury with Monnington on Wye||52.09041|-2.93529|GB
7291418|Brockhampton|Brockhampton||51.97602|-2.59919|GB
7291419|Bromyard and Winslow|Bromyard and Winslow||52.19027|-2.51876|GB
7294710|Buckton and Coxall|Buckton and Coxall||52.35859|-2.90923|GB
7294711|Burghill|Burghill||52.1009|-2.77128|GB
7298881|Burrington|Burrington||52.35118|-2.80305|GB
7293156|Byford|Byford||52.08385|-2.88581|GB
7291420|Byton|Byton||52.26802|-2.92463|GB
7293157|Callow|Callow||52.00558|-2.72499|GB
7291421|Canon Frome|Canon Frome||52.09053|-2.50961|GB
7298056|Canon Pyon|Canon Pyon||52.14153|-2.79101|GB
7294499|Castle Frome|Castle Frome||52.10616|-2.48752|GB
7293158|Clehonger|Clehonger||52.03903|-2.78302|GB
7293159|Clifford|Clifford||52.09383|-3.06588|GB
7294500|Coddington|Coddington||52.08012|-2.40635|GB
7294712|Collington|Collington||52.2378|-2.51236|GB
7294501|Colwall|Colwall||52.07633|-2.37469|GB
7291422|Combe|Combe||52.26349|-2.9572|GB
7293160|Cradley|Cradley||52.13073|-2.3997|GB
7293161|Craswall|Craswall||52.01478|-3.04663|GB
7298057|Credenhill|Credenhill||52.09138|-2.79542|GB
7298058|Croft and Yarpole|Croft and Yarpole||52.2864|-2.78388|GB
7298059|Cusop|Cusop||52.0614|-3.09611|GB
7294713|Dewsall|Dewsall||51.99814|-2.75581|GB
7294714|Dilwyn|Dilwyn||52.17882|-2.85641|GB
7291423|Dinedor|Dinedor||52.02638|-2.68103|GB
7293162|Dinmore|Dinmore||52.15415|-2.75215|GB
7294715|Docklow and Hampton Wafer|Docklow and Hampton Wafer||52.21115|-2.64047|GB
7294502|Donnington|Donnington||52.00488|-2.416|GB
7291424|Dormington|Dormington||52.05391|-2.59386|GB
7294503|Dorstone|Dorstone||52.07052|-3.01431|GB
7294716|Downton|Downton||52.35864|-2.8371|GB
7293163|Dulas|Dulas||51.96299|-2.92108|GB
7291425|Eardisland|Eardisland||52.2202|-2.85806|GB
7291426|Eardisley|Eardisley||52.14715|-3.01438|GB
7294504|Eastnor|Eastnor||52.03469|-2.38047|GB
7293164|Eaton Bishop|Eaton Bishop||52.05078|-2.81692|GB
7294717|Edvin Loach and Saltmarshe|Edvin Loach and Saltmarshe||52.22354|-2.49267|GB
7294718|Edwyn Ralph|Edwyn Ralph||52.21715|-2.52523|GB
7293165|Eggleton|Eggleton||52.10343|-2.5306|GB
7293166|Elton|Elton||52.33157|-2.80462|GB
7294505|Evesbatch|Evesbatch||52.13082|-2.44812|GB
7291427|Ewyas Harold|Ewyas Harold||51.95222|-2.89073|GB
7291428|Eye, Moreton and Ashton|Eye, Moreton and Ashton||52.27237|-2.71913|GB
7293167|Eyton|Eyton||52.25416|-2.76833|GB
7293168|Felton|Felton||52.12695|-2.62848|GB
7297941|Ford and Stoke Prior|Ford and Stoke Prior||52.19514|-2.69795|GB
7294506|Fownhope|Fownhope||52.01414|-2.60969|GB
7294507|Foy|Foy||51.95883|-2.56807|GB
7293169|Ganarew|Ganarew||51.84283|-2.67872|GB
7294508|Garway|Garway||51.90387|-2.79071|GB
7294719|Goodrich|Goodrich||51.86048|-2.62447|GB
7291429|Grafton|Grafton||52.02188|-2.7262|GB
7294720|Grendon Bishop|Grendon Bishop||52.20201|-2.59521|GB
7294509|Hampton Bishop|Hampton Bishop||52.04411|-2.65907|GB
7291430|Hampton Charles|Hampton Charles||52.24204|-2.57867|GB
7293170|Harewood|Harewood||51.95063|-2.67984|GB
7291431|Hatfield and Newhampton|Hatfield and Newhampton||52.22905|-2.60332|GB
7294510|Haywood|Haywood||52.02026|-2.75468|GB
7297942|Hentland|Hentland||51.94156|-2.66886|GB
7294543|Hereford|Hereford||52.05302|-2.72365|GB
7294511|Holme Lacy|Holme Lacy||52.0107|-2.65595|GB
7294721|Holmer & Shelwick|Holmer & Shelwick||52.08119|-2.71022|GB
7294512|Hope Mansell|Hope Mansell||51.87679|-2.53603|GB
7294513|Hope under Dinmore|Hope under Dinmore||52.17605|-2.72753|GB
7294722|How Caple|How Caple||51.97367|-2.57467|GB
7294723|Humber|Humber||52.19634|-2.64657|GB
7294514|Huntington|Huntington||52.16945|-3.09001|GB
7291432|Kenchester|Kenchester||52.076|-2.81891|GB
7294724|Kenderchurch|Kenderchurch||51.96016|-2.85401|GB
7294515|Kentchurch|Kentchurch||51.93051|-2.84782|GB
7294725|Kilpeck|Kilpeck||51.95898|-2.81388|GB
7294516|Kimbolton|Kimbolton||52.24814|-2.69372|GB
7291964|King's Pyon|King's Pyon||52.1508|-2.83494|GB
7298882|Kings Caple|Kings Caple||51.95905|-2.6327|GB
7294726|Kingsland|Kingsland||52.2467|-2.80755|GB
7291433|Kingstone|Kingstone||52.01948|-2.83598|GB
7294517|Kington|Kington||52.19882|-3.03574|GB
7294727|Kington Rural|Kington Rural||52.19524|-3.04634|GB
7297943|Kinnersley|Kinnersley||52.14036|-2.95777|GB
7297944|Kinsham|Kinsham||52.27991|-2.94034|GB
7291434|Knill|Knill||52.24253|-3.03867|GB
7291435|Laysters|Laysters||52.267|-2.63417|GB
7297945|Lea|Lea||51.8932|-2.49776|GB
7294518|Ledbury|Ledbury||52.03794|-2.41814|GB
7294728|Leinthall Starkes|Leinthall Starkes||52.32052|-2.83064|GB
7294729|Leintwardine|Leintwardine||52.36592|-2.86058|GB
7294730|Leominster|Leominster||52.21439|-2.73705|GB
7291048|Letton|Letton||52.12139|-2.96331|GB
7291436|Lingen|Lingen||52.30377|-2.94223|GB
7291437|Linton|Linton||52.18221|-2.4642|GB
7294227|Little Birch|Little Birch||51.97379|-2.69985|GB
7297946|Little Cowarne|Little Cowarne||52.15657|-2.582|GB
7291050|Little Dewchurch|Little Dewchurch||51.97693|-2.65944|GB
7294519|Little Hereford|Little Hereford||52.31251|-2.65367|GB
7297947|Little Marcle|Little Marcle||52.02795|-2.48198|GB
7294520|Llancillo|Llancillo||51.92425|-2.9222|GB
7297948|Llandinabo|Llandinabo||51.95424|-2.70063|GB
7298378|Llangarron|Llangarron||51.88226|-2.7016|GB
7291051|Llanrothal|Llanrothal||51.85673|-2.74915|GB
7291438|Llanveynoe|Llanveynoe||51.97539|-3.03551|GB
7301661|Llanwarne|Llanwarne||51.9469|-2.72392|GB
7291052|Longtown|Longtown||51.95577|-2.96761|GB
7297575|Lower Bullingham|Lower Bullingham||52.03|-2.69941|GB
7297576|Lower Harpton|Lower Harpton||52.2243|-3.05784|GB
7290783|Lucton|Lucton||52.27322|-2.82607|GB
7297949|Lugwardine|Lugwardine||52.06476|-2.65429|GB
7297950|Luston|Luston||52.25818|-2.75393|GB
7291439|Lyonshall|Lyonshall||52.19915|-2.98284|GB
7297951|Madley|Madley||52.04379|-2.85867|GB
7291440|Mansell Gamage|Mansell Gamage||52.09938|-2.87646|GB
7291441|Mansell Lacy|Mansell Lacy||52.10239|-2.84838|GB
7291154|Marden|Marden||52.12972|-2.68766|GB
7297952|Marstow|Marstow||51.88762|-2.64814|GB
7291442|Mathon|Mathon||52.10381|-2.38703|GB
7291443|Michaelchurch Escley|Michaelchurch Escley||52.01889|-3.02366|GB
7294521|Middleton on the Hill|Middleton on the Hill||52.27539|-2.65803|GB
7297953|Moccas|Moccas||52.07907|-2.93913|GB
7294522|Monkland and Stretford|Monkland and Stretford||52.20872|-2.808|GB
7294228|Mordiford|Mordiford||52.04203|-2.59909|GB
7297954|Moreton Jeffries|Moreton Jeffries||52.13368|-2.58305|GB
7294523|Moreton on Lugg|Moreton on Lugg||52.10996|-2.72795|GB
7291444|Much Birch|Much Birch||51.97196|-2.71743|GB
7290785|Much Cowarne|Much Cowarne||52.11756|-2.54619|GB
7290786|Much Dewchurch|Much Dewchurch||51.98033|-2.75431|GB
7294524|Much Marcle|Much Marcle||51.9943|-2.50707|GB
7290787|Munsley|Munsley||52.06553|-2.49468|GB
7294525|Newton|Newton||52.18106|-2.72982|GB
7294526|Norton|Norton||52.20705|-2.48085|GB
7291446|Norton Canon|Norton Canon||52.12696|-2.91825|GB
7291447|Ocle Pychard|Ocle Pychard||52.11412|-2.61357|GB
7291448|Orcop|Orcop||51.93463|-2.78426|GB
7290788|Orleton|Orleton||52.30328|-2.75636|GB
7297577|Pembridge|Pembridge||52.21152|-2.92164|GB
7294739|Pencombe with Grendon Warren|Pencombe with Grendon Warren||52.17653|-2.60856|GB
7294527|Pencoyd|Pencoyd||51.93599|-2.70613|GB
7294528|Peterchurch|Peterchurch||52.04793|-2.97522|GB
7294529|Peterstow|Peterstow||51.92076|-2.64524|GB
7298883|Pipe Aston|Pipe Aston||52.34646|-2.78449|GB
7291449|Pipe and Lyde|Pipe and Lyde||52.09206|-2.7149|GB
7296480|Pixley|Pixley||52.05081|-2.50194|GB
7294229|Preston Wynne|Preston Wynne||52.11693|-2.64359|GB
7291450|Preston on Wye|Preston on Wye||52.06494|-2.89061|GB
7298884|Pudlestone|Pudlestone||52.23577|-2.6407|GB
7296481|Putley|Putley||52.03592|-2.52211|GB
7294530|Richards Castle (Hereford)|Richards Castle (Hereford)||52.33307|-2.76673|GB
7297955|Rodd, Nash and Little Brampton|Rodd, Nash and Little Brampton||52.24739|-3.00351|GB
7297957|Ross Rural|Ross Rural||51.91559|-2.56812|GB
7297956|Ross-on-Wye|Ross-on-Wye||51.91216|-2.58852|GB
7296482|Rowlstone|Rowlstone||51.93936|-2.91541|GB
7294741|Sarnesfield|Sarnesfield||52.15529|-2.92156|GB
7294742|Sellack|Sellack||51.94327|-2.62855|GB
7294230|Shobdon|Shobdon||52.25702|-2.87645|GB
7297960|Sollers Hope|Sollers Hope||51.99058|-2.55853|GB
7294740|St. Devereux|St. Devereux||51.98309|-2.80363|GB
7297958|St. Margarets|St. Margarets||52.00595|-2.95794|GB
7297959|St. Weonards|St. Weonards||51.90669|-2.74839|GB
7294531|Stanford Bishop|Stanford Bishop||52.16591|-2.46051|GB
7297961|Stapleton|Stapleton||52.28488|-2.9873|GB
7294743|Staunton on Arrow|Staunton on Arrow||52.2438|-2.94523|GB
7294532|Staunton on Wye|Staunton on Wye||52.10828|-2.93473|GB
7297578|Stoke Edith|Stoke Edith||52.05618|-2.58176|GB
7297962|Stoke Lacy|Stoke Lacy||52.15484|-2.54918|GB
7300092|Stretton Grandison|Stretton Grandison||52.09153|-2.53171|GB
7296214|Stretton Sugwas|Stretton Sugwas||52.07407|-2.7896|GB
7296041|Sutton|Sutton||52.1032|-2.68328|GB
7294744|Tarrington|Tarrington||52.06099|-2.55167|GB
7296215|Tedstone Delamere|Tedstone Delamere||52.22701|-2.44127|GB
7294745|Tedstone Wafer|Tedstone Wafer||52.23406|-2.4824|GB
7294533|Thornbury|Thornbury||52.23799|-2.55531|GB
7300093|Thruxton|Thruxton||52.00209|-2.81694|GB
7300094|Titley|Titley||52.2324|-2.9902|GB
7300095|Tretire with Michaelchurch|Tretire with Michaelchurch||51.9185|-2.69814|GB
7296216|Treville|Treville||51.98951|-2.82256|GB
7294534|Turnastone|Turnastone||52.02089|-2.95944|GB
7294746|Tyberton|Tyberton||52.04905|-2.90537|GB
7294747|Ullingswick|Ullingswick||52.14426|-2.60092|GB
7300096|Upper Sapey|Upper Sapey||52.26933|-2.46|GB
7294535|Upton Bishop|Upton Bishop||51.9455|-2.50826|GB
7296217|Vowchurch|Vowchurch||52.02294|-2.92508|GB
7294536|Wacton|Wacton||52.21503|-2.56369|GB
7296218|Walford|Walford||51.88467|-2.58343|GB
7294537|Walford, Letton and Newton|Walford, Letton and Newton||52.33454|-2.9089|GB
7300097|Walterstone|Walterstone||51.91754|-2.9567|GB
7298885|Wellington|Wellington||52.13939|-2.73697|GB
7294538|Wellington Heath|Wellington Heath||52.0651|-2.43044|GB
7296219|Welsh Bicknor|Welsh Bicknor||51.85145|-2.6143|GB
7300098|Welsh Newton|Welsh Newton||51.86015|-2.72103|GB
7294748|Weobley|Weobley||52.16032|-2.88972|GB
7294749|Westhide|Westhide||52.09174|-2.60422|GB
7294750|Weston Beggard|Weston Beggard||52.07497|-2.61079|GB
7296220|Weston under Penyard|Weston under Penyard||51.90324|-2.53787|GB
7294539|Whitbourne|Whitbourne||52.20515|-2.42205|GB
7294551|Whitchurch|Whitchurch||51.85118|-2.65945|GB
7296221|Whitney-on-Wye|Whitney-on-Wye||52.12106|-3.06448|GB
7294751|Wigmore|Wigmore||52.30741|-2.87959|GB
7300099|Willersley and Winforton|Willersley and Winforton||52.11649|-3.02126|GB
7294752|Willey|Willey||52.3031|-2.98128|GB
7293171|Withington|Withington||52.09201|-2.65233|GB
7294540|Wolferlow|Wolferlow||52.25664|-2.49405|GB
7294541|Woolhope|Woolhope||52.02063|-2.56051|GB
7294753|Wormbridge|Wormbridge||51.97396|-2.84803|GB
7300100|Yarkhill|Yarkhill||52.09146|-2.5753|GB
7294754|Yatton|Yatton||51.97326|-2.53491|GB
7300101|Yazor|Yazor||52.12306|-2.87164|GB
2647043|Hertfordshire|Hertfordshire||51.83333|-0.25|GB
7290563|Broxbourne District|Broxbourne District||51.73026|-0.04821|GB
6615330|City and District of St. Albans|City and District of St. Albans||51.77007|-0.33251|GB
7290564|Dacorum District|Dacorum District||51.76851|-0.57377|GB
7290565|East Hertfordshire District|East Hertfordshire District||51.86522|0.00761|GB
7290566|Hertsmere District|Hertsmere District||51.68037|-0.27344|GB
7290567|North Hertfordshire District|North Hertfordshire District||51.95642|-0.1644|GB
7290568|Stevenage District|Stevenage District||51.90041|-0.18897|GB
2635925|Three Rivers|Three Rivers||51.6702|-0.45095|GB
7290569|Watford District|Watford District||51.66906|-0.40263|GB
2634551|Welwyn Hatfield|Welwyn Hatfield||51.75|-0.21667|GB
2646007|Isle of Wight|Isle of Wight||50.66667|-1.33333|GB
7295843|Arreton|Arreton||50.67154|-1.25298|GB
7295844|Bembridge|Bembridge||50.68397|-1.10303|GB
7293727|Brading|Brading||50.68651|-1.14594|GB
7298793|Brighstone|Brighstone||50.64276|-1.41511|GB
7293728|Calbourne|Calbourne||50.70299|-1.38846|GB
7298022|Chale|Chale||50.60415|-1.31645|GB
7295845|Cowes|Cowes||50.75764|-1.30624|GB
7291461|East Cowes|East Cowes||50.75393|-1.26844|GB
7293722|Fishbourne|Fishbourne||50.72835|-1.21021|GB
7295277|Freshwater|Freshwater||50.67942|-1.4997|GB
7293729|Gatcombe|Gatcombe||50.64883|-1.31149|GB
7298794|Godshill|Godshill||50.627|-1.26262|GB
7293730|Gurnard|Gurnard||50.75039|-1.33039|GB
7291788|Havenstreet and Ashey|Havenstreet and Ashey||50.70265|-1.20455|GB
7299168|Lake|Lake||50.65286|-1.17218|GB
7297503|Nettlestone and Seaview|Nettlestone and Seaview||50.72339|-1.12067|GB
7291790|Newchurch|Newchurch||50.65758|-1.19872|GB
7301611|Newport|Newport||50.69129|-1.30915|GB
7291787|Niton and Whitwell|Niton and Whitwell||50.59552|-1.27379|GB
7291791|Northwood|Northwood||50.73915|-1.31093|GB
7299169|Rookley|Rookley||50.65046|-1.28036|GB
7299167|Ryde|Ryde||50.72413|-1.17024|GB
7295275|Sandown|Sandown||50.66125|-1.14195|GB
7295840|Shalfleet|Shalfleet||50.69564|-1.44481|GB
7298788|Shanklin|Shanklin||50.62595|-1.18996|GB
7293723|Shorwell|Shorwell||50.6339|-1.34213|GB
7291462|St. Helens|St. Helens||50.70224|-1.10229|GB
7298789|Totland|Totland||50.67514|-1.55998|GB
7293726|Ventnor|Ventnor||50.59646|-1.22204|GB
7291789|Whippingham|Whippingham||50.73514|-1.26317|GB
7295276|Wootton Bridge|Wootton Bridge||50.72604|-1.23451|GB
7295274|Wroxall|Wroxall||50.6162|-1.21616|GB
7291356|Yarmouth|Yarmouth||50.69885|-1.48479|GB
2638384|Isles of Scilly|Isles of Scilly||49.92117|-6.29431|GB
7298790|Bryher|Bryher||49.95241|-6.35816|GB
7298791|St. Agnes|St. Agnes||49.89139|-6.34934|GB
7295841|St. Martin's|St. Martin's||49.96304|-6.28594|GB
7298792|St. Mary's|St. Mary's||49.92034|-6.30189|GB
7295842|Tresco|Tresco||49.95336|-6.33658|GB
3333158|Kent|Kent||51.16667|0.66667|GB
7290570|Ashford District|Ashford District||51.1293|0.81147|GB
6945809|Borough of Ashford|Borough of Ashford||51.14907|0.87155|GB
6945813|Borough of Dartford|Borough of Dartford||51.44882|0.22007|GB
2648186|Borough of Gravesham|Borough of Gravesham||51.44291|0.36405|GB
6945812|Borough of Maidstone|Borough of Maidstone||51.27278|0.51825|GB
6945810|Borough of Swale|Borough of Swale||51.34177|0.73883|GB
2643149|Borough of Tonbridge and Malling|Borough of Tonbridge and Malling||51.28333|0.41667|GB
6945811|Borough of Tunbridge Wells|Borough of Tunbridge Wells||51.13391|0.26653|GB
6945807|City of Canterbury|City of Canterbury||51.27958|1.08078|GB
7290571|Dartford District|Dartford District||51.43388|0.24851|GB
2651049|Dover District|Dover District||51.15|1.23333|GB
7290572|Maidstone District|Maidstone District||51.2753|0.52837|GB
6945814|Sevenoaks District|Sevenoaks District||51.27129|0.18239|GB
6945806|Shepway District|Shepway District||51.08174|1.15391|GB
7290573|Swale District|Swale District||51.3362|0.81066|GB
2636057|Thanet District|Thanet District||51.35|1.28333|GB
7290574|Tonbridge and Malling District|Tonbridge and Malling District||51.27118|0.36528|GB
7290575|Tunbridge Wells District|Tunbridge Wells District||51.11769|0.39044|GB
3333161|Kirklees|Kirklees||53.58333|-1.75|GB
7295817|Denby Dale|Denby Dale||53.59108|-1.64974|GB
7295924|Holme Valley|Holme Valley||53.56699|-1.81582|GB
7295925|Kirkburton|Kirkburton||53.62895|-1.69371|GB
7295818|Meltham|Meltham||53.58986|-1.86003|GB
7293814|Mirfield|Mirfield||53.6739|-1.69404|GB
3333162|Knowsley|Knowsley||53.41667|-2.83333|GB
7295926|Cronton|Cronton||53.39149|-2.766|GB
7295335|Halewood|Halewood||53.36434|-2.82053|GB
7295391|Knowsley|Knowsley||53.44594|-2.84335|GB
7293815|Prescot|Prescot||53.42475|-2.80553|GB
7293816|Tarbock|Tarbock||53.38199|-2.80607|GB
7295927|Whiston|Whiston||53.41282|-2.79727|GB
2644974|Lancashire|Lancashire||53.83333|-2.5|GB
7290576|Burnley District|Burnley District||53.77392|-2.22584|GB
7290577|Chorley District|Chorley District||53.67227|-2.66639|GB
7290578|Fylde District|Fylde District||53.79308|-2.92633|GB
7290579|Hyndburn District|Hyndburn District||53.76043|-2.38833|GB
2644973|Lancaster|Lancaster||54.11667|-2.76667|GB
7290580|Pendle District|Pendle District||53.87877|-2.1879|GB
7290581|Preston District|Preston District||53.82188|-2.70932|GB
7290582|Ribble Valley District|Ribble Valley District||53.90244|-2.41624|GB
7290583|Rossendale District|Rossendale District||53.68454|-2.27663|GB
2637338|South Ribble|South Ribble||53.71667|-2.73333|GB
2634372|West Lancashire District|West Lancashire District||53.61098|-2.88693|GB
2633439|Wyre District|Wyre District||53.91667|-2.96667|GB
2644667|Leicestershire|Leicestershire||52.66667|-1.0|GB
2655533|Blaby|Blaby||52.57879|-1.19927|GB
7290584|Charnwood District|Charnwood District||52.73892|-1.13962|GB
7290585|Harborough District|Harborough District||52.53818|-1.00808|GB
7290586|Hinckley and Bosworth District|Hinckley and Bosworth District||52.60778|-1.38402|GB
7290587|Melton District|Melton District||52.81141|-0.8538|GB
6896157|North West Leicestershire|North West Leicestershire||52.73213|-1.43166|GB
2641133|Oadby and Wigston|Oadby and Wigston||52.58709|-1.09294|GB
2644486|Lincolnshire|Lincolnshire||53.16667|-0.25|GB
7290588|Boston District|Boston District||52.97439|-0.00233|GB
7290589|East Lindsey District|East Lindsey District||53.26768|0.02194|GB
7290590|Lincoln District|Lincoln District||53.22012|-0.55664|GB
2641324|North Kesteven|North Kesteven||53.11667|-0.63333|GB
7290591|South Holland District|South Holland District||52.81159|-0.01524|GB
7290592|South Kesteven District|South Kesteven District||52.84974|-0.5068|GB
7290593|West Lindsey District|West Lindsey District||53.3973|-0.47458|GB
3333167|Liverpool|Liverpool||53.41667|-2.91667|GB
3333168|Luton|Luton||51.8911|-0.42793|GB
3333169|Manchester|Manchester||53.41667|-2.25|GB
7295552|Ringway|Ringway||53.35796|-2.28619|GB
3333170|Medway|Medway||51.41667|0.5|GB
7296568|Allhallows|Allhallows||51.47874|0.65092|GB
7295553|Cliffe and Cliffe Woods|Cliffe and Cliffe Woods||51.46386|0.48952|GB
7290862|Cooling|Cooling||51.45806|0.5371|GB
7290863|Cuxton|Cuxton||51.37945|0.44485|GB
7295559|Frindsbury Extra|Frindsbury Extra||51.4098|0.50668|GB
7295560|Halling|Halling||51.35469|0.42702|GB
7296575|High Halstow|High Halstow||51.4683|0.55766|GB
7301801|Hoo St. Werburgh|Hoo St. Werburgh||51.42256|0.58446|GB
7299192|Isle of Grain|Isle of Grain||51.45569|0.70334|GB
7296576|St. Mary Hoo|St. Mary Hoo||51.47468|0.59249|GB
7301571|Stoke|Stoke||51.44172|0.63208|GB
3333220|Metropolitan Borough of Wirral|Metropolitan Borough of Wirral||53.33333|-3.08333|GB
3333172|Middlesbrough|Middlesbrough||54.53333|-1.2|GB
7296585|Nunthorpe|Nunthorpe||54.51705|-1.16639|GB
7296586|Stainton and Thornton|Stainton and Thornton||54.5187|-1.25455|GB
3333173|Milton Keynes|Milton Keynes||52.08333|-0.75|GB
7299213|Astwood|Astwood||52.1174|-0.6098|GB
7295593|Bletchley and Fenny Stratford|Bletchley and Fenny Stratford||51.99164|-0.73115|GB
7295586|Bow Brickhill|Bow Brickhill||52.00218|-0.6861|GB
7297832|Bradwell|Bradwell||52.04749|-0.77983|GB
7301821|Bradwell Abbey|Bradwell Abbey||52.04486|-0.80905|GB
7291158|Broughton|Broughton||52.05074|-0.68714|GB
7301830|Calverton|Calverton||52.03445|-0.84139|GB
7295591|Campbell Park|Campbell Park||52.04557|-0.74088|GB
7291159|Castlethorpe|Castlethorpe||52.10126|-0.84972|GB
